,address_lat,address_lng,contributors,currency,loan_identifier,monthLastUpdate,name,prices,yearLastUpdate
0,-7.238452,112.734996,39,IDR,1VSAV13ZD8,12,"Surabaya, Indonesia",3926000.0,2015
1,37.977133,23.729875,474,EUR,1Q5P3Y3VEV,1,"Athens, Greece",717.856953125,2016
2,49.131095,-122.716958,18,CAD,1JFYQV3PEZ,12,"Langley, BC, Canada",3666.66666667,2015
3,28.349705,77.328463,21,INR,201AJW41JS,10,"Faridabad, India",31800.0,2015
4,34.045806,-118.250712,323,USD,16820N3DM8,1,"Los Angeles, CA, United States",3094.83787879,2016
5,53.584482,-2.393858,10,GBP,1J1DE33NY1,10,"Bolton, United Kingdom",1498.25,2015
6,-25.95498,28.11498,4,ZAR,1PZHZS3V4Y,6,"Midrand, South Africa",15000.0,2015
7,47.412771,18.915021,2,HUF,224J7J42VD,10,"Érd, Hungary",118696.453406,2015
8,-25.443494,-49.056411,127,BRL,1PFMFX3TK1,1,"Curitiba, Brazil",1675.0,2016
9,42.994055,-81.179523,62,CAD,295PBD47RF,1,"London, Canada",2979.0625,2016
10,29.57058,-81.199211,7,USD,16Q6HK3DT2,12,"Palm Coast, FL, United States",2583.33333333,2015
11,-1.303468,36.774764,102,KES,14GVD63CZ4,12,"Nairobi, Kenya",28597.0,2015
12,37.977133,23.729875,474,EUR,20JP6141WN,1,"Athens, Greece",717.856953125,2016
13,32.067319,34.781028,197,ILS,1C9P9S3HHV,1,"Tel Aviv-yafo, Israel",7480.0,2016
14,47.649422,23.553423,11,RON,1RHXGS3X00,10,"Baia Mare, Romania",1466.90173452,2015
15,45.458525,9.164262,233,EUR,EFZ3731SG,1,"Milan, Italy",1659.54157895,2016
16,-5.379217,105.299315,5,IDR,1VYJX13ZG6,11,"Bandar Lampung, Indonesia",2000000.0,2014
17,-7.255091,112.71331,39,IDR,281FPE46F6,12,"Surabaya, Indonesia",3926000.0,2015
18,-33.434753,151.453866,13,AUD,288ACW46NY,1,"Gosford, Australia",4000.0,2016
19,53.584482,-2.393858,10,GBP,1HKFYY3NDZ,10,"Bolton, United Kingdom",1498.25,2015
20,45.733108,21.241429,77,RON,1ZP4D041CB,1,"Timisoara, Romania",2059.41176471,2016
21,45.483101,9.235804,233,EUR,1VSBSB3ZDC,1,"Milan, Italy",1659.54157895,2016
22,38.59116,-89.909465,2,USD,1CADAR3HJB,6,"O'Fallon, IL, United States",2000.0,2015
23,52.510964,13.304994,310,EUR,1SAQAP3XTB,1,"Berlin, Germany",1854.6,2016
24,-6.41384,106.859687,4,IDR,20H67Z41VN,12,"Depok, Indonesia",3000000.0,2015
25,44.408788,8.933717,57,EUR,KJ4YP347A,12,"Genoa, Italy",1679.375,2015
26,32.19089,-110.833431,89,USD,1A8SK83G3A,12,"Tucson, AZ, United States",2905.55555556,2015
27,-1.294718,36.887131,102,KES,28CJK346T1,12,"Nairobi, Kenya",28597.0,2015
28,40.145035,-76.215697,19,USD,1RGF9B3WZ0,12,"Lancaster, PA, United States",2350.0,2015
29,48.525951,-89.215877,25,CAD,280CNH46E7,11,"Thunder Bay, Canada",2569.85,2015
30,40.145035,-76.215697,19,USD,1SSEWZ3Y4F,12,"Lancaster, PA, United States",2350.0,2015
31,28.872807,-81.246436,9,USD,2A50JG48YW,12,"Deltona, FL, United States",1700.0,2015
32,32.067319,34.781028,197,ILS,21X8WM42Q3,1,"Tel Aviv-yafo, Israel",7480.0,2016
33,-7.238452,112.734996,39,IDR,1J9DRH3P7D,12,"Surabaya, Indonesia",3926000.0,2015
34,10.70708,-71.628954,7,USD,22CM854314,9,"Maracaibo, Venezuela",378.666666667,2015
35,-7.464059,112.716554,39,IDR,1WV3ET3ZWZ,12,"Surabaya, Indonesia",3926000.0,2015
36,46.877498,18.615739,4,HUF,2C2JJF4C52,10,"Dunaföldvár, Hungary",121848.226703,2015
37,-1.286641,36.826108,102,KES,17ZPWN3EE9,12,"Nairobi, Kenya",28597.0,2015
38,41.624628,0.637423,12,EUR,1TTCE83YWQ,11,"Lleida, Spain",1400.0,2015
39,39.16804,-84.560166,86,USD,1V4Z9X3Z2H,12,"Cincinnati, OH, United States",2619.80384615,2015
40,35.97069,-86.602268,15,USD,1FJH9G3KNM,12,"Murfreesboro, TN, United States",2491.53333333,2015
41,53.584482,-2.393858,10,GBP,1HKFN43NDY,10,"Bolton, United Kingdom",1498.25,2015
42,-22.917916,-43.253201,251,BRL,2F20TH4J64,1,"Rio De Janeiro, Brazil",2127.07428571,2016
43,55.750309,24.34544,10,EUR,2A6J02490B,7,"Panevezys, Lithuania",442.704711601,2015
44,53.584482,-2.393858,10,GBP,1HZBXZ3NWD,10,"Bolton, United Kingdom",1498.25,2015
45,25.456048,-100.99027,13,MXN,28GJ8746Z5,9,"Saltillo, Mexico",7454.0,2015
46,32.067319,34.781028,197,ILS,2CQM6Q4DVV,1,"Tel Aviv-yafo, Israel",7480.0,2016
47,53.069756,8.823655,35,EUR,1NV6J23SRK,11,"Bremen, Germany",2210.0,2015
48,46.2977,16.344015,16,HRK,1RJ8WM3X0M,12,"Varazdin, Croatia",4200.0,2015
49,-26.892182,-48.658285,8,BRL,1ACYMW3G5N,10,"Itajai, Brazil",1300.0,2015
50,29.57058,-81.199211,7,USD,1BTKK23H50,12,"Palm Coast, FL, United States",2583.33333333,2015
51,-26.892182,-48.658285,8,BRL,19JA1E3FJ5,10,"Itajai, Brazil",1300.0,2015
52,34.270802,-118.763323,9,USD,14F9J23CYB,12,"Simi Valley, CA, United States",2200.0,2015
53,-23.557467,-46.485291,2,BRL,2DEAPR4FD9,10,"Sao Caetano do Sul, Brazil",2390.0,2015
54,52.402488,0.26782,75,GBP,1SQM1J3Y2F,1,"Cambridge, United Kingdom",2016.66666667,2016
55,35.97069,-86.602268,15,USD,194YYP3F89,12,"Murfreesboro, TN, United States",2491.53333333,2015
56,47.421556,8.302713,14,CHF,207MEX41PJ,12,"Baden, Switzerland",5000.0,2015
57,44.7443,20.420193,243,RSD,1P0XTY3SYH,1,"Belgrade, Serbia",43918.1163311,2016
58,51.039861,13.688816,54,EUR,242YZD448T,1,"Dresden, Germany",1949.44444444,2016
59,45.733108,21.241429,77,RON,1PXGEP3V0Q,1,"Timisoara, Romania",2059.41176471,2016
60,55.689747,12.565023,235,DKK,GPD4531YM,1,"Copenhagen, Denmark",19588.6538462,2016
61,39.461124,-76.248893,2,USD,1Z1C3B411A,12,"Abingdon, MD, United States",2300.0,2015
62,37.766571,-122.458944,297,USD,1D2QVY3J29,1,"San Francisco, CA, United States",4199.18947368,2016
63,13.051637,80.213614,4,INR,23B6WR43QN,12,"Madras, India",23500.0,2015
64,-25.443494,-49.056411,127,BRL,1KJ1HX3QAB,1,"Curitiba, Brazil",1675.0,2016
65,10.679117,76.155508,16,INR,25FEHG44ZT,11,"Thrissur, India",31666.6666667,2015
66,59.432148,24.766478,150,EUR,1905PZ3F2Q,12,"Tallinn, Estonia",847.791666667,2015
67,46.80969,-71.225329,88,CAD,22N0NK4390,1,"Quebec City, Canada",2811.64814815,2016
68,52.540658,13.417918,310,EUR,EBZYT31R7,1,"Berlin, Germany",1854.6,2016
69,-7.255091,112.71331,40,IDR,235C7943GG,1,"Surabaya, Indonesia",3926000.0,2016
70,37.804199,-122.407146,297,USD,270CWK45P2,1,"San Francisco, CA, United States",4199.18947368,2016
71,47.511145,18.990685,426,HUF,1QN61M3W4C,1,"Budapest, Hungary",170539.485486,2016
72,44.429451,26.011088,451,RON,1SY8J53Y8B,1,"Bucharest, Romania",2141.06965436,2016
73,32.555602,-84.902136,25,USD,226ZH842WQ,12,"Columbus, GA, United States",1499.66666667,2015
74,12.937828,80.151819,4,INR,25V2VA455A,12,"Madras, India",23500.0,2015
75,19.973716,-102.279243,4,MXN,21XBNE42QB,12,"Zamora de Hidalgo, Mexico",6750.0,2015
76,38.638548,-121.384825,113,USD,1P1YVK3T35,1,"Sacramento, CA, United States",2746.19857143,2016
77,55.750309,24.34544,10,EUR,2AF26X49BP,7,"Panevezys, Lithuania",442.704711601,2015
78,12.999759,77.531812,578,INR,2B4XFJ4AEJ,1,"Bangalore, India",45535.3902344,2016
79,35.97069,-86.602268,15,USD,1HF9443NAB,12,"Murfreesboro, TN, United States",2491.53333333,2015
80,37.977133,23.729875,474,EUR,1XM2HX40AW,1,"Athens, Greece",717.856953125,2016
81,49.889583,-119.390402,67,CAD,12PE913C64,12,"Kelowna, Canada",2680.0,2015
82,49.806316,-97.165659,148,CAD,1C5QP43HEC,1,"Winnipeg, Canada",2827.875,2016
83,36.101031,-79.820668,35,USD,1K9XFW3Q4G,12,"Greensboro, NC, United States",3302.83333333,2015
84,45.483101,9.235804,233,EUR,18JK0W3ETR,1,"Milan, Italy",1659.54157895,2016
85,52.540658,13.417918,310,EUR,H42P831ZE,1,"Berlin, Germany",1854.6,2016
86,19.205158,72.834045,8,INR,2D57MJ4EPS,12,"Yamuna Nagar, India",14250.0,2015
87,32.067319,34.781028,197,ILS,15BE1D3D7Q,1,"Tel Aviv-yafo, Israel",7480.0,2016
88,37.671699,-122.477072,297,USD,1V2JHP3Z1G,1,"San Francisco, CA, United States",4199.18947368,2016
89,59.376457,24.64509,2,EUR,ZTPWR3AYH,1,"Saue, Estonia",700.0,2015
90,51.933806,4.500743,61,EUR,2978HH47TJ,12,"Rotterdam, Netherlands",1800.0,2015
91,-6.261709,106.959906,8,IDR,2DFQM04FGB,11,"Bekasi, Indonesia",5977500.0,2015
92,34.270802,-118.763323,9,USD,1E580V3JV1,12,"Simi Valley, CA, United States",2200.0,2015
93,56.945316,24.115333,176,EUR,27HHC045YQ,1,"Riga, Latvia",619.9375,2016
94,30.19485,-97.876437,226,USD,1TMQG73YRM,1,"Austin, TX, United States",2856.28055556,2016
95,53.852474,-1.83484,27,GBP,23C69543RH,11,"Bradford, United Kingdom",1166.66666667,2015
96,53.818569,-1.572518,96,GBP,25MH76452B,1,"Leeds, United Kingdom",1659.33333333,2016
97,32.067319,34.781028,197,ILS,1PYBQT3V2R,1,"Tel Aviv-yafo, Israel",7480.0,2016
98,23.066497,72.559261,97,INR,1SQNS83Y2J,12,"Ahmedabad, India",24604.7619048,2015
99,46.883389,-71.296911,88,CAD,1EKSTB3K2G,1,"Quebec City, Canada",2811.64814815,2016
100,28.872807,-81.246436,9,USD,2A724N490T,12,"Deltona, FL, United States",1700.0,2015
101,43.584551,15.927135,10,HRK,1MXXAE3RQG,10,"Sibenik, Croatia",4150.0,2015
102,41.019867,29.100257,655,TRY,2CRC6Y4DXC,1,"Istanbul, Turkey",1999.0559375,2016
103,38.534324,-122.808062,31,USD,1P6E0W3T9P,12,"Santa Rosa, CA, United States",3866.66666667,2015
104,39.16804,-84.560166,86,USD,1R0RT53WF7,12,"Cincinnati, OH, United States",2619.80384615,2015
105,36.101031,-79.820668,35,USD,1N3X6H3RYR,12,"Greensboro, NC, United States",3302.83333333,2015
106,38.638548,-121.384825,113,USD,1NT6DB3SR0,1,"Sacramento, CA, United States",2746.19857143,2016
107,34.064353,-118.375347,4,USD,19R8VS3FPD,11,"West Hollywood, CA, United States",3900.0,2015
108,-7.238452,112.734996,40,IDR,1PCEYF3TG2,1,"Surabaya, Indonesia",3926000.0,2016
109,59.064267,15.101492,14,SEK,1T9SN33YFN,1,"Orebro, Sweden",17530.2,2016
110,61.485375,21.796887,9,EUR,1H2G6C3MZY,11,"Pori, Finland",3000.0,2015
111,48.525951,-89.215877,25,CAD,2BS5B54BMV,11,"Thunder Bay, Canada",2569.85,2015
112,42.993293,-83.692807,22,USD,1NK3RG3SES,11,"Flint, MI, United States",1439.19,2015
113,56.945316,24.115333,176,EUR,24XRS544P5,1,"Riga, Latvia",619.9375,2016
114,-6.26634,106.924772,8,IDR,1JT6M93PR1,11,"Bekasi, Indonesia",5977500.0,2015
115,52.402488,0.26782,75,GBP,1YG8XE40RM,1,"Cambridge, United Kingdom",2016.66666667,2016
116,45.836734,15.696472,3,HRK,1RNDFN3X56,11,"Samobor, Croatia",4650.0,2014
117,59.350804,18.059719,261,SEK,2BNQKG4BCY,1,"Stockholm, Sweden",23566.2954545,2016
118,29.57058,-81.199211,7,USD,137S853CCV,12,"Palm Coast, FL, United States",2583.33333333,2015
119,-7.238452,112.734996,40,IDR,21MM1342HX,1,"Surabaya, Indonesia",3926000.0,2016
120,29.57058,-81.199211,7,USD,18YB4H3F14,12,"Palm Coast, FL, United States",2583.33333333,2015
121,28.872807,-81.246436,9,USD,2AN0R149NJ,12,"Deltona, FL, United States",1700.0,2015
122,42.363625,-71.064669,250,USD,WNC853684,1,"Boston, MA, United States",3503.35022625,2016
123,45.733108,21.241429,77,RON,1PRG9R3TV0,1,"Timisoara, Romania",2059.41176471,2016
124,35.837901,50.992994,11,USD,1XE406408D,12,"Karaj, Iran",775.0,2015
125,32.067319,34.781028,197,ILS,1CT8353HW6,1,"Tel Aviv-yafo, Israel",7480.0,2016
126,53.069756,8.823655,35,EUR,1YNEP340VC,11,"Bremen, Germany",2210.0,2015
127,-23.254543,-45.905748,28,BRL,2DYF784GB6,12,"Sao Jose dos Campos, Brazil",1932.0,2015
128,-12.846628,-38.468195,46,BRL,2CGZ014DB3,1,"Salvador, Brazil",1058.33333333,2016
129,34.270802,-118.763323,9,USD,1EP5K33K3W,12,"Simi Valley, CA, United States",2200.0,2015
130,48.763876,9.154961,73,EUR,106BBZ3B3S,1,"Stuttgart, Germany",2543.33333333,2016
131,33.958454,-83.373013,43,USD,2B3Q7F4ABT,12,"Athens, GA, United States",2386.66666667,2015
132,45.621995,-73.874764,16,CAD,1BXR2R3H6T,9,"Laval, Canada",2683.33333333,2015
133,51.53945,-0.096832,867,GBP,1Z2ZQD4120,1,"London, United Kingdom",1995.42261409,2016
134,48.366262,-71.278653,10,CAD,14Q25Z3D1E,7,"Saguenay, Canada",3051.5,2015
135,28.872807,-81.246436,9,USD,2A385248VS,12,"Deltona, FL, United States",1700.0,2015
136,26.386271,-80.09658,16,USD,1Y3P0X40HN,12,"Boca Raton, FL, United States",4746.58333333,2015
137,46.883389,-71.296911,88,CAD,1DFDMD3JAB,1,"Quebec City, Canada",2811.64814815,2016
138,35.899404,-79.024942,15,USD,TXWS735DE,12,"Chapel Hill, NC, United States",2800.0,2015
139,40.088233,-76.276765,19,USD,1R5ASP3WMP,12,"Lancaster, PA, United States",2350.0,2015
140,-22.798647,-43.180841,25,BRL,255PZV44SV,12,"Niteroi, Brazil",3333.33333333,2015
141,56.669337,12.880735,10,SEK,2B6D2E4AGR,12,"Halmstad, Sweden",18374.597997,2015
142,39.16804,-84.560166,86,USD,1R0R1R3WEZ,12,"Cincinnati, OH, United States",2619.80384615,2015
143,-6.216204,106.963525,8,IDR,1KJYXX3QAQ,11,"Bekasi, Indonesia",5977500.0,2015
144,52.543692,13.411384,310,EUR,2AC2HB4977,1,"Berlin, Germany",1854.6,2016
145,40.726083,-74.228686,48,USD,1TF61A3YN7,12,"Newark, NJ, United States",2801.25,2015
146,46.2977,16.344015,16,HRK,1G3ACZ3M2S,12,"Varazdin, Croatia",4200.0,2015
147,-25.95498,28.11498,4,ZAR,1MREHC3RKX,6,"Midrand, South Africa",15000.0,2015
148,35.899404,-79.024942,15,USD,WC2413649,12,"Chapel Hill, NC, United States",2800.0,2015
149,40.462547,-80.054547,130,USD,2EWWG64HXS,1,"Pittsburgh, PA, United States",2433.57884615,2016
150,48.99282,8.394117,41,EUR,FZ9K331X3,12,"Karlsruhe, Germany",2125.334,2015
151,35.837901,50.992994,11,USD,1X9NP9405M,12,"Karaj, Iran",775.0,2015
152,38.534324,-122.808062,31,USD,1RHVSX3WZW,12,"Santa Rosa, CA, United States",3866.66666667,2015
153,32.067319,34.781028,197,ILS,2D549Q4EPH,1,"Tel Aviv-yafo, Israel",7480.0,2016
154,12.937828,80.151819,4,INR,24GGDT44FV,12,"Madras, India",23500.0,2015
155,34.064353,-118.375347,4,USD,15GPJ33D9Z,11,"West Hollywood, CA, United States",3900.0,2015
156,40.145035,-76.215697,19,USD,1QFMMS3VY3,12,"Lancaster, PA, United States",2350.0,2015
157,-22.798647,-43.180841,25,BRL,255EMV44SR,12,"Niteroi, Brazil",3333.33333333,2015
158,-6.221791,106.891523,220,IDR,1ND1HX3S9E,12,"Jakarta, Indonesia",6064285.71429,2015
159,28.577422,77.309,56,INR,26M2VA45H4,12,"Noida, India",31800.0,2015
160,40.713473,-73.944737,548,USD,1NFZ313SC8,1,"New York, NY, United States",3471.96752343,2016
161,45.757691,22.940111,11,RON,1WBTYM3ZPF,12,"Deva, Romania",1616.66666667,2015
162,19.205158,72.834045,8,INR,2E4SRQ4GQE,12,"Yamuna Nagar, India",14250.0,2015
163,-25.443494,-49.056411,127,BRL,1P23M33T3D,1,"Curitiba, Brazil",1675.0,2016
164,35.629098,-97.604624,78,USD,1ARDQ93GEB,12,"Oklahoma City, OK, United States",2198.0,2015
165,-25.443494,-49.056411,127,BRL,2399EZ43P9,1,"Curitiba, Brazil",1675.0,2016
166,-7.255091,112.71331,40,IDR,26NEAY45HT,1,"Surabaya, Indonesia",3926000.0,2016
167,11.060426,76.973628,69,INR,1YQPGB40WS,12,"Coimbatore, India",20863.6363636,2015
168,32.555602,-84.902136,25,USD,1Z5061412P,12,"Columbus, GA, United States",1499.66666667,2015
169,56.945316,24.115333,176,EUR,229V9G42YW,1,"Riga, Latvia",619.9375,2016
170,31.559707,-97.190087,19,USD,1CCSV63HKP,12,"Waco, TX, United States",2381.575,2015
171,25.456048,-100.99027,13,MXN,2C9QBK4CSV,9,"Saltillo, Mexico",7454.0,2015
172,40.66202,-73.924723,64,USD,2F2XT34J8A,12,"Brooklyn, NY, United States",3337.5,2015
173,40.561848,-111.850968,100,USD,1DVEX63JJJ,1,"Salt Lake City, UT, United States",3354.39,2016
174,-6.261709,106.959906,8,IDR,1SR28E3Y3F,11,"Bekasi, Indonesia",5977500.0,2015
175,32.555602,-84.902136,25,USD,1YE27A40QD,12,"Columbus, GA, United States",1499.66666667,2015
176,53.584482,-2.393858,10,GBP,1J0Y3K3NXV,10,"Bolton, United Kingdom",1498.25,2015
177,45.483101,9.235804,233,EUR,1GD5T23M9J,1,"Milan, Italy",1659.54157895,2016
178,51.550954,-1.781141,22,GBP,20V8D6421S,12,"Swindon, United Kingdom",1649.39,2015
179,-25.674133,28.211663,89,ZAR,2CT1T34E25,12,"Pretoria, South Africa",22390.6470588,2015
180,53.773415,-1.54316,96,GBP,M4TAR3488,1,"Leeds, United Kingdom",1659.33333333,2016
181,28.872807,-81.246436,9,USD,2EKAFS4HGP,12,"Deltona, FL, United States",1700.0,2015
182,35.97069,-86.602268,15,USD,13V1943CNP,12,"Murfreesboro, TN, United States",2491.53333333,2015
183,50.343577,7.56679,9,EUR,KJ4NW3478,9,"Koblenz, Germany",2766.66666667,2015
184,-6.261709,106.959906,8,IDR,1HJT313NCZ,11,"Bekasi, Indonesia",5977500.0,2015
185,46.883389,-71.296911,88,CAD,1R3XDZ3WJW,1,"Quebec City, Canada",2811.64814815,2016
186,43.596659,-79.708893,82,CAD,1VMHM53ZAT,1,"Mississauga, Canada",2250.11111111,2016
187,37.977133,23.729875,474,EUR,1PYN023V38,1,"Athens, Greece",717.856953125,2016
188,46.2977,16.344015,16,HRK,1S1WB93XMD,12,"Varazdin, Croatia",4200.0,2015
189,13.072373,80.199958,4,INR,1SKKSK3XZH,12,"Madras, India",23500.0,2015
190,52.540658,13.417918,310,EUR,FMQ7X31WD,1,"Berlin, Germany",1854.6,2016
191,-7.238452,112.734996,40,IDR,1CRBE13HTZ,1,"Surabaya, Indonesia",3926000.0,2016
192,40.713473,-73.944737,548,USD,1M5JVD3QR0,1,"New York, NY, United States",3471.96752343,2016
193,45.155556,26.806823,10,RON,29Z85P48M8,12,"Buzau, Romania",1410.0,2015
194,35.837901,50.992994,11,USD,1XAPDJ4064,12,"Karaj, Iran",775.0,2015
195,18.956946,72.817666,520,INR,2C62C74CE6,1,"Mumbai, India",45108.4596842,2016
196,19.205158,72.834045,8,INR,2F9Q954JHR,12,"Yamuna Nagar, India",14250.0,2015
197,36.101031,-79.820668,35,USD,1YG8C140RJ,12,"Greensboro, NC, United States",3302.83333333,2015
198,32.067319,34.781028,197,ILS,19EWXF3FF5,1,"Tel Aviv-yafo, Israel",7480.0,2016
199,52.510964,13.304994,310,EUR,19VCY23FRS,1,"Berlin, Germany",1854.6,2016
200,-8.068811,-34.930926,64,BRL,GHJ1Y31YA,12,"Recife, Brazil",1808.75,2015
201,-31.447017,-64.188017,18,USD,1WEC5E3ZQD,1,"Cordoba, Argentina",898.6,2016
202,55.750309,24.34544,10,EUR,2B93FV4AP3,7,"Panevezys, Lithuania",442.704711601,2015
203,-43.546061,172.666936,110,NZD,19E8393FEH,12,"Christchurch, New Zealand",2811.11111111,2015
204,-1.303468,36.774764,102,KES,S3AN134R8,12,"Nairobi, Kenya",28597.0,2015
205,47.511145,18.990685,426,HUF,1Y8YAJ40MP,1,"Budapest, Hungary",170539.485486,2016
206,-33.434753,151.453866,13,AUD,270MNX45PC,1,"Gosford, Australia",4000.0,2016
207,-6.26634,106.924772,8,IDR,1KCHE93Q66,11,"Bekasi, Indonesia",5977500.0,2015
208,37.804199,-122.407146,297,USD,23W7RA4436,1,"San Francisco, CA, United States",4199.18947368,2016
209,39.15187,-76.634516,95,USD,1J0HR83NXM,1,"Baltimore, MD, United States",3226.46136364,2016
210,44.212298,28.623895,32,RON,1ZD357416Q,10,"Constanta, Romania",1425.0,2015
211,51.881714,0.851165,18,GBP,21VQWM42P9,1,"Colchester, United Kingdom",1189.16666667,2016
212,52.472828,-0.92121,12,GBP,26ZYWD45NQ,11,"Corby, United Kingdom",1301.43333333,2015
213,49.806316,-97.165659,148,CAD,2BHMWQ4B54,1,"Winnipeg, Canada",2827.875,2016
214,61.485375,21.796887,9,EUR,1FAZ213KEZ,11,"Pori, Finland",3000.0,2015
215,35.97069,-86.602268,15,USD,13NVN23CK5,12,"Murfreesboro, TN, United States",2491.53333333,2015
216,36.101031,-79.820668,35,USD,1SQD863Y2A,12,"Greensboro, NC, United States",3302.83333333,2015
217,45.507703,-73.552247,422,CAD,2A63JQ4900,1,"Montreal, Canada",2665.00950613,2016
218,37.671699,-122.477072,297,USD,1VAYZ83Z60,1,"San Francisco, CA, United States",4199.18947368,2016
219,48.525951,-89.215877,25,CAD,2FB6VH4JMP,11,"Thunder Bay, Canada",2569.85,2015
220,39.16804,-84.560166,86,USD,1WM5V73ZT1,12,"Cincinnati, OH, United States",2619.80384615,2015
221,19.912735,75.350203,25,INR,1VBQJC3Z6N,12,"Aurangabad, India",19000.0,2015
222,53.766425,-2.339251,7,GBP,1NTVVP3SRC,11,"Burnley, United Kingdom",1900.0,2015
223,51.517035,-0.131344,867,GBP,1T9V913YFY,1,"London, United Kingdom",1995.42261409,2016
224,19.871125,75.324231,25,INR,1X7VYJ404G,12,"Aurangabad, India",19000.0,2015
225,1.321267,103.741124,569,SGD,2BG6RR4B2D,1,"Singapore, Singapore",4219.46424104,2016
226,51.517035,-0.131344,867,GBP,20J07441W6,1,"London, United Kingdom",1995.42261409,2016
227,53.499801,49.398856,4,USD,2ASAMF49VW,11,"Tolyatti (Togliatti), Russia",450.0,2015
228,45.733108,21.241429,77,RON,20CTA841RS,1,"Timisoara, Romania",2059.41176471,2016
229,44.7443,20.420193,243,RSD,1Q8P413VMK,1,"Belgrade, Serbia",43918.1163311,2016
230,8.50405,124.736299,22,PHP,28M89Z4742,11,"Cagayan de Oro City, Philippines",10800.0,2015
231,51.517035,-0.131344,867,GBP,1VMMQ33ZAY,1,"London, United Kingdom",1995.42261409,2016
232,51.517035,-0.131344,867,GBP,1VMMVC3ZB3,1,"London, United Kingdom",1995.42261409,2016
233,13.072373,80.199958,4,INR,2B5CF54AEZ,12,"Madras, India",23500.0,2015
234,13.072373,80.199958,4,INR,21HESQ42FY,12,"Madras, India",23500.0,2015
235,59.064267,15.101492,14,SEK,1TMYDB3YRT,1,"Orebro, Sweden",17530.2,2016
236,47.075074,21.909091,33,RON,24TXET44N5,1,"Oradea, Romania",1387.5,2016
237,-33.829987,18.508987,210,ZAR,2BZF4D4BZA,1,"Cape Town, South Africa",18218.0707895,2016
238,36.714093,-4.435142,64,EUR,2CB2ZB4CX1,12,"Malaga, Spain",1141.66666667,2015
239,39.15187,-76.634516,95,USD,1PWCXG3TZZ,1,"Baltimore, MD, United States",3226.46136364,2016
240,30.191369,-98.09499,226,USD,10X0RN3BEN,1,"Austin, TX, United States",2856.28055556,2016
241,46.80969,-71.225329,88,CAD,1YXRW940ZQ,1,"Quebec City, Canada",2811.64814815,2016
242,56.945316,24.115333,176,EUR,233D2043F0,1,"Riga, Latvia",619.9375,2016
243,59.376457,24.64509,2,EUR,10ZMGT3BGS,1,"Saue, Estonia",700.0,2015
244,36.101031,-79.820668,35,USD,1NNZFC3SH1,12,"Greensboro, NC, United States",3302.83333333,2015
245,-43.546061,172.666936,110,NZD,1998RP3FAX,12,"Christchurch, New Zealand",2811.11111111,2015
246,28.872807,-81.246436,9,USD,2A46AX48XG,12,"Deltona, FL, United States",1700.0,2015
247,46.2977,16.344015,16,HRK,1HA91J3N5Q,12,"Varazdin, Croatia",4200.0,2015
248,39.461124,-76.248893,2,USD,24VF4344NG,12,"Abingdon, MD, United States",2300.0,2015
249,37.977133,23.729875,474,EUR,20DTNM41T1,1,"Athens, Greece",717.856953125,2016
250,43.596659,-79.708893,82,CAD,1VZD0K3ZGQ,1,"Mississauga, Canada",2250.11111111,2016
251,44.408788,8.933717,57,EUR,JZRGF346A,12,"Genoa, Italy",1679.375,2015
252,40.145035,-76.215697,19,USD,27PY3M465G,12,"Lancaster, PA, United States",2350.0,2015
253,43.596659,-79.708893,82,CAD,1VMHGN3ZAP,1,"Mississauga, Canada",2250.11111111,2016
254,37.402682,-5.983645,50,EUR,FJ16W31W9,12,"Sevilla, Spain",1144.45,2015
255,53.499801,49.398856,4,USD,2BYVVZ4BYB,11,"Tolyatti (Togliatti), Russia",450.0,2015
256,53.069756,8.823655,35,EUR,1YR8KS40X1,11,"Bremen, Germany",2210.0,2015
257,-25.443494,-49.056411,127,BRL,1VA7JY3Z58,1,"Curitiba, Brazil",1675.0,2016
258,40.708825,-73.827046,1,JMD,271CGW45PW,7,"Richmond, Jamaica",150000.0,2014
259,-23.970511,-46.334904,19,BRL,28QRGH478G,12,"Santos, Brazil",2250.0,2015
260,46.2977,16.344015,16,HRK,1Q8T373VN7,12,"Varazdin, Croatia",4200.0,2015
261,38.700807,-121.456751,113,USD,28MKNR4751,1,"Sacramento, CA, United States",2746.19857143,2016
262,37.977133,23.729875,474,EUR,1RANBF3WSJ,1,"Athens, Greece",717.856953125,2016
263,34.101952,-118.331733,4,USD,1CDM4V3HKZ,11,"West Hollywood, CA, United States",3900.0,2015
264,28.872807,-81.246436,9,USD,2F2EDY4J7C,12,"Deltona, FL, United States",1700.0,2015
265,32.067319,34.781028,197,ILS,1C2R7C3HB2,1,"Tel Aviv-yafo, Israel",7480.0,2016
266,51.039861,13.688816,54,EUR,223C7X42TF,1,"Dresden, Germany",1949.44444444,2016
267,52.540658,13.417918,310,EUR,E4EVG31PW,1,"Berlin, Germany",1854.6,2016
268,53.574516,-1.015526,12,GBP,1GEHGJ3MA6,11,"Doncaster, United Kingdom",990.0,2015
269,46.80969,-71.225329,88,CAD,1XSTPB40DN,1,"Quebec City, Canada",2811.64814815,2016
270,-25.674133,28.211663,89,ZAR,2DZ0CY4GCQ,12,"Pretoria, South Africa",22390.6470588,2015
271,42.700262,23.286768,350,BGN,2ECGYP4H3R,1,"Sofia, Bulgaria",997.566771174,2016
272,53.499801,49.398856,4,USD,2BGTK74B3E,11,"Tolyatti (Togliatti), Russia",450.0,2015
273,-22.864852,-47.046694,81,BRL,27RWT04689,12,"Campinas, Brazil",2385.22222222,2015
274,28.349705,77.328463,21,INR,1Z12EZ4116,10,"Faridabad, India",31800.0,2015
275,53.499801,49.398856,4,USD,2AZ22W4A4R,11,"Tolyatti (Togliatti), Russia",450.0,2015
276,37.977133,23.729875,474,EUR,201V7J41K5,1,"Athens, Greece",717.856953125,2016
277,32.555602,-84.902136,25,USD,21ZQ7P42RC,12,"Columbus, GA, United States",1499.66666667,2015
278,43.418776,-79.75442,24,CAD,1QKA013W2G,12,"Oakville, Canada",2350.0,2015
279,43.599404,-79.703789,82,CAD,19V5CY3FRJ,1,"Mississauga, Canada",2250.11111111,2016
280,37.671699,-122.477072,297,USD,1VSXXJ3ZDX,1,"San Francisco, CA, United States",4199.18947368,2016
281,35.97069,-86.602268,15,USD,13NVNX3CK6,12,"Murfreesboro, TN, United States",2491.53333333,2015
282,28.872807,-81.246436,9,USD,2EK8WN4HGH,12,"Deltona, FL, United States",1700.0,2015
283,34.439178,-119.812776,68,USD,2B690Q4AGA,1,"Santa Barbara, CA, United States",3414.6,2016
284,48.546613,39.387215,2,USD,1V1NSY3Z0N,11,"Lugansk, Ukraine",47.4687299741,2015
285,28.577422,77.309,56,INR,2AXWZP4A2B,12,"Noida, India",31800.0,2015
286,61.485375,21.796887,9,EUR,1GWQCW3MTY,11,"Pori, Finland",3000.0,2015
287,28.349705,77.328463,21,INR,1ZEENN417N,10,"Faridabad, India",31800.0,2015
288,45.483101,9.235804,233,EUR,108P743B4R,1,"Milan, Italy",1659.54157895,2016
289,33.436947,-111.76579,32,USD,1DJ6073JC3,12,"Mesa, AZ, United States",2457.20625,2015
290,32.555602,-84.902136,25,USD,1Z5N014131,12,"Columbus, GA, United States",1499.66666667,2015
291,54.686596,25.275737,146,EUR,1TC73C3YJ4,1,"Vilnius, Lithuania",625.637727029,2016
292,43.584551,15.927135,10,HRK,2BBX9K4AVT,10,"Sibenik, Croatia",4150.0,2015
293,40.708825,-73.827046,1,JMD,2BHJQ54B4X,7,"Richmond, Jamaica",150000.0,2014
294,-7.255091,112.71331,40,IDR,29Z0EK48KX,1,"Surabaya, Indonesia",3926000.0,2016
295,51.53945,-0.096832,867,GBP,1TQ8FV3YTP,1,"London, United Kingdom",1995.42261409,2016
296,51.517035,-0.131344,867,GBP,1YBFQ140P3,1,"London, United Kingdom",1995.42261409,2016
297,44.212298,28.623895,32,RON,1VE3P43Z7W,10,"Constanta, Romania",1425.0,2015
298,35.837901,50.992994,11,USD,1X9P08405P,12,"Karaj, Iran",775.0,2015
299,28.872807,-81.246436,9,USD,2EYKW04J0B,12,"Deltona, FL, United States",1700.0,2015
300,12.973725,80.127679,4,INR,2AXBZK4A1E,12,"Madras, India",23500.0,2015
301,44.408788,8.933717,57,EUR,G8AZE31XX,12,"Genoa, Italy",1679.375,2015
302,38.534324,-122.808062,31,USD,1MSD7H3RMJ,12,"Santa Rosa, CA, United States",3866.66666667,2015
303,47.51213,19.076624,426,HUF,1K4QW53PZS,1,"Budapest, Hungary",170539.485486,2016
304,40.713473,-73.944737,548,USD,19THJ93FQH,1,"New York, NY, United States",3471.96752343,2016
305,32.19089,-110.833431,89,USD,1C3MNE3HBZ,12,"Tucson, AZ, United States",2905.55555556,2015
306,32.861131,-97.004518,9,USD,1PXMPD3V0W,7,"Irving, TX, United States",3207.34166667,2015
307,35.837901,50.992994,11,USD,1XE3W34089,12,"Karaj, Iran",775.0,2015
308,48.525951,-89.215877,25,CAD,23TM3Z441W,11,"Thunder Bay, Canada",2569.85,2015
309,40.726083,-74.228686,48,USD,2AKPN749HD,12,"Newark, NJ, United States",2801.25,2015
310,-1.30217,36.768846,102,KES,28D8G246TZ,12,"Nairobi, Kenya",28597.0,2015
311,61.485375,21.796887,9,EUR,1CEX7J3HMF,11,"Pori, Finland",3000.0,2015
312,61.485375,21.796887,9,EUR,1H2GF53N00,11,"Pori, Finland",3000.0,2015
313,-1.30217,36.768846,102,KES,2AYVVS4A4G,12,"Nairobi, Kenya",28597.0,2015
314,30.19485,-97.876437,226,USD,1TMQMN3YRP,1,"Austin, TX, United States",2856.28055556,2016
315,59.350804,18.059719,261,SEK,26JCYV45GC,1,"Stockholm, Sweden",23566.2954545,2016
316,34.270802,-118.763323,9,USD,18HJ5G3ET4,12,"Simi Valley, CA, United States",2200.0,2015
317,-31.447017,-64.188017,18,USD,1CD5CT3HKV,1,"Cordoba, Argentina",898.6,2016
318,-6.216204,106.963525,8,IDR,1T8JAM3YER,11,"Bekasi, Indonesia",5977500.0,2015
319,28.577422,77.309,56,INR,26W92M45KW,12,"Noida, India",31800.0,2015
320,-6.261709,106.959906,8,IDR,253H2G44RN,11,"Bekasi, Indonesia",5977500.0,2015
321,-37.687074,145.062997,422,AUD,1759ZN3E0W,1,"Melbourne, Australia",4249.66107143,2016
322,37.977133,23.729875,474,EUR,1NH02C3SDK,1,"Athens, Greece",717.856953125,2016
323,-32.288795,115.772824,7,AUD,1K80EX3Q23,11,"Mandurah, Australia",5000.0,2015
324,26.386271,-80.09658,16,USD,1TJH213YQS,12,"Boca Raton, FL, United States",4746.58333333,2015
325,37.402682,-5.983645,50,EUR,RVB0P34NN,12,"Sevilla, Spain",1144.45,2015
326,-25.443494,-49.056411,127,BRL,1ZWSBH41FS,1,"Curitiba, Brazil",1675.0,2016
327,51.550958,-1.785773,22,GBP,19Y2XB3FTK,12,"Swindon, United Kingdom",1649.39,2015
328,61.485375,21.796887,9,EUR,1CM2E93HS0,11,"Pori, Finland",3000.0,2015
329,41.345806,21.557553,12,MKD,1A1RK93FWW,10,"Prilep, Macedonia",13763.0,2015
330,44.429451,26.011088,451,RON,1NB73C3S83,1,"Bucharest, Romania",2141.06965436,2016
331,19.871125,75.324231,25,INR,2BDEJX4AXW,12,"Aurangabad, India",19000.0,2015
332,32.555602,-84.902136,25,USD,225M8K42W8,12,"Columbus, GA, United States",1499.66666667,2015
333,45.458525,9.164262,233,EUR,J0S8K342A,1,"Milan, Italy",1667.74767857,2016
334,-34.496682,150.43243,7,AUD,29SFH448CT,10,"Bowral, Australia",7500.0,2015
335,-25.443494,-49.056411,127,BRL,1TX39H3YYM,1,"Curitiba, Brazil",1675.0,2016
336,28.349705,77.328463,21,INR,1V4KB33Z27,10,"Faridabad, India",31800.0,2015
337,39.580955,-105.128369,192,USD,1PE4FF3THH,12,"Denver, CO, United States",2873.56142857,2015
338,39.461124,-76.248893,2,USD,260SDZ458R,12,"Abingdon, MD, United States",2300.0,2015
339,-12.846628,-38.468195,46,BRL,2CE0S24D4S,1,"Salvador, Brazil",1058.33333333,2016
340,19.205158,72.834045,8,INR,2FA1264JJH,12,"Yamuna Nagar, India",14250.0,2015
341,43.599404,-79.703789,82,CAD,1B28FC3GKG,1,"Mississauga, Canada",2250.11111111,2016
342,61.485375,21.796887,9,EUR,1EJZRE3K1X,11,"Pori, Finland",3000.0,2015
343,26.386271,-80.09658,16,USD,1NX0HC3ST1,12,"Boca Raton, FL, United States",4746.58333333,2015
344,53.766425,-2.339251,7,GBP,1JSHY23PQA,11,"Burnley, United Kingdom",1900.0,2015
345,18.475869,-69.943923,63,DOP,2AYJWK4A3F,1,"Santo Domingo, Dominican Republic",14611.1111111,2016
346,-25.95498,28.11498,4,ZAR,1KBTWC3Q5K,6,"Midrand, South Africa",15000.0,2015
347,46.80969,-71.225329,88,CAD,22QBXS43A0,1,"Quebec City, Canada",2811.64814815,2016
348,46.910057,19.675587,5,HUF,20M6MM41X9,11,"Kecskemet, Hungary",98333.3333333,2015
349,47.225268,5.137244,5,EUR,J0SH7342B,5,"Dijon, France",1700.0,2015
350,12.986224,79.136862,8,INR,18XAXA3F06,5,"Vellore, India",75000.0,2015
351,40.561848,-111.850968,100,USD,1FH8D93KMK,1,"Salt Lake City, UT, United States",3354.39,2016
352,-26.892182,-48.658285,8,BRL,19YKBA3FTY,10,"Itajai, Brazil",1300.0,2015
353,28.349705,77.328463,21,INR,1VAH5B3Z5J,10,"Faridabad, India",31800.0,2015
354,53.766425,-2.339251,7,GBP,1KJ7K03QAG,11,"Burnley, United Kingdom",1900.0,2015
355,-37.687074,145.062997,422,AUD,16009H3DJ9,1,"Melbourne, Australia",4249.66107143,2016
356,-11.960487,-77.048053,112,PEN,2D04SN4EC5,1,"Lima, Peru",1785.71428571,2016
357,48.546613,39.387215,2,USD,1WYHF63ZZ6,11,"Lugansk, Ukraine",47.4687299741,2015
358,51.517035,-0.131344,867,GBP,1X7D4W4046,1,"London, United Kingdom",1995.42261409,2016
359,25.456048,-100.99027,13,MXN,28NR93476V,9,"Saltillo, Mexico",7454.0,2015
360,45.607591,15.245681,1,EUR,2F7A8F4JF6,12,"Crnomelj, Slovenia",881.0,2015
361,34.064353,-118.375347,4,USD,15DVBF3D88,11,"West Hollywood, CA, United States",3900.0,2015
362,40.145035,-76.215697,19,USD,1RNV4K3X5P,12,"Lancaster, PA, United States",2350.0,2015
363,52.530561,13.386689,310,EUR,1ZK8WN41AY,1,"Berlin, Germany",1854.6,2016
364,40.084947,-89.741431,28,USD,1447JD3CSD,1,"Springfield, IL, United States",2373.39375,2016
365,40.726083,-74.228686,48,USD,2AKJVJ49H4,12,"Newark, NJ, United States",2801.25,2015
366,-6.957385,107.63927,53,IDR,2BGMQE4B35,12,"Bandung, Indonesia",3060000.0,2015
367,32.067319,34.781028,197,ILS,223Y7R42TM,1,"Tel Aviv-yafo, Israel",7480.0,2016
368,39.461124,-76.248893,2,USD,260SQT458T,12,"Abingdon, MD, United States",2300.0,2015
369,28.409376,-81.227542,145,USD,218QN342AC,12,"Orlando, FL, United States",3137.06666667,2015
370,-6.261709,106.959906,8,IDR,1QGDEH3VZD,11,"Bekasi, Indonesia",5977500.0,2015
371,43.599404,-79.703789,82,CAD,1B28CV3GKE,1,"Mississauga, Canada",2250.11111111,2016
372,53.766425,-2.339251,7,GBP,1HMCBJ3NFH,11,"Burnley, United Kingdom",1900.0,2015
373,-22.798647,-43.180841,25,BRL,255B1844SG,12,"Niteroi, Brazil",3333.33333333,2015
374,35.899404,-79.024942,15,USD,X26JY36EN,12,"Chapel Hill, NC, United States",2800.0,2015
375,33.503453,-102.023505,29,USD,17KDTB3E7A,12,"Lubbock, TX, United States",2217.475,2015
376,35.899404,-79.024942,15,USD,SW7F9350W,12,"Chapel Hill, NC, United States",2800.0,2015
377,45.607591,15.245681,1,EUR,1ZFDMW4184,12,"Crnomelj, Slovenia",881.0,2015
378,53.818569,-1.572518,96,GBP,21Z91942R5,1,"Leeds, United Kingdom",1659.33333333,2016
379,46.2977,16.344015,16,HRK,1X8CCE404V,12,"Varazdin, Croatia",4200.0,2015
380,43.584551,15.927135,10,HRK,1RSR303XBA,10,"Sibenik, Croatia",4150.0,2015
381,40.145035,-76.215697,19,USD,1Z13HE4118,12,"Lancaster, PA, United States",2350.0,2015
382,52.530561,13.386689,310,EUR,1ZK33Z41AE,1,"Berlin, Germany",1854.6,2016
383,35.899404,-79.024942,15,USD,10WP0Q3BEJ,12,"Chapel Hill, NC, United States",2800.0,2015
384,-22.798647,-43.180841,25,BRL,255BTX44SP,12,"Niteroi, Brazil",3333.33333333,2015
385,51.550954,-1.781141,22,GBP,200H9241J8,12,"Swindon, United Kingdom",1649.39,2015
386,-7.255091,112.71331,40,IDR,26W45J45KT,1,"Surabaya, Indonesia",3926000.0,2016
387,45.507703,-73.552247,422,CAD,28WYFK47EP,1,"Montreal, Canada",2665.00950613,2016
388,43.418776,-79.75442,24,CAD,1QGEP13VZH,12,"Oakville, Canada",2350.0,2015
389,61.485375,21.796887,9,EUR,1CEW383HME,11,"Pori, Finland",3000.0,2015
390,36.101031,-79.820668,35,USD,2DAB8P4F3P,12,"Greensboro, NC, United States",3302.83333333,2015
391,51.550954,-1.781141,22,GBP,205P7K41NH,12,"Swindon, United Kingdom",1649.39,2015
392,-1.286641,36.826108,102,KES,14KF6A3CZZ,12,"Nairobi, Kenya",28597.0,2015
393,37.804199,-122.407146,297,USD,21BF1A42C6,1,"San Francisco, CA, United States",4199.18947368,2016
394,-25.674133,28.211663,89,ZAR,264M1V45AN,12,"Pretoria, South Africa",22390.6470588,2015
395,53.818569,-1.572518,96,GBP,25G5TT4506,1,"Leeds, United Kingdom",1659.33333333,2016
396,-22.798647,-43.180841,25,BRL,28YKAT47H3,12,"Niteroi, Brazil",3333.33333333,2015
397,-7.141522,-34.908272,26,BRL,2D82KC4EXS,12,"Joao Pessoa, Brazil",900.0,2015
398,-43.546061,172.666936,110,NZD,19FCHN3FFD,12,"Christchurch, New Zealand",2811.11111111,2015
399,25.856767,-80.181772,162,USD,1T7WP43YDJ,1,"Miami, FL, United States",3005.28235294,2016
400,40.708825,-73.827046,1,JMD,2BQ7QR4BHE,7,"Richmond, Jamaica",150000.0,2014
401,44.212298,28.623895,32,RON,1QNRZW3W4P,10,"Constanta, Romania",1425.0,2015
402,40.088233,-76.276765,19,USD,1HKEAE3NDX,12,"Lancaster, PA, United States",2350.0,2015
403,43.596659,-79.708893,82,CAD,1X4ANW4024,1,"Mississauga, Canada",2250.11111111,2016
404,32.861131,-97.004518,9,USD,1P69PB3T9H,7,"Irving, TX, United States",3207.34166667,2015
405,12.998183,77.642797,578,INR,2DHXRM4FNV,1,"Bangalore, India",45535.3902344,2016
406,53.069756,8.823655,35,EUR,1ZZTN041HG,11,"Bremen, Germany",2210.0,2015
407,46.2977,16.344015,16,HRK,1X8C5Y404Q,12,"Varazdin, Croatia",4200.0,2015
408,-25.443494,-49.056411,127,BRL,1KJ1CY3QAA,1,"Curitiba, Brazil",1675.0,2016
409,13.051637,80.213614,4,INR,23H57B43WC,12,"Madras, India",23500.0,2015
410,43.596659,-79.708893,82,CAD,1VMHJ03ZAR,1,"Mississauga, Canada",2250.11111111,2016
411,45.005058,-93.290402,151,USD,1XEABN408H,12,"Minneapolis, MN, United States",3149.27941176,2015
412,44.408788,8.933717,57,EUR,QD2RZ34DS,12,"Genoa, Italy",1679.375,2015
413,33.93336,-84.701591,23,USD,29S9HD48C9,12,"Marietta, GA, United States",1700.0,2015
414,61.485375,21.796887,9,EUR,1FQHQF3KTP,11,"Pori, Finland",3000.0,2015
415,-6.26634,106.924772,8,IDR,1M1Y5X3QNK,11,"Bekasi, Indonesia",5977500.0,2015
416,-1.294718,36.887131,102,KES,1MGKGY3R5N,12,"Nairobi, Kenya",28597.0,2015
417,26.386271,-80.09658,16,USD,1TSGD03YW1,12,"Boca Raton, FL, United States",4746.58333333,2015
418,53.069756,8.823655,35,EUR,1ZZTCZ41H7,11,"Bremen, Germany",2210.0,2015
419,45.483101,9.235804,233,EUR,1ZE0JS417F,1,"Milan, Italy",1667.74767857,2016
420,37.804199,-122.407146,297,USD,21BE0J42C3,1,"San Francisco, CA, United States",4199.18947368,2016
421,52.510964,13.304994,310,EUR,G8AQK31XW,1,"Berlin, Germany",1854.6,2016
422,12.937828,80.151819,4,INR,23XTDE444M,12,"Madras, India",23500.0,2015
423,28.577422,77.309,56,INR,2B33DE4AA7,12,"Noida, India",31800.0,2015
424,-25.826142,28.255221,2,ZAR,1ZP8ZA41CD,6,"Verwoerdburg, South Africa",27000.0,2015
425,24.812038,93.915877,9,INR,15EZKP3D8J,10,"Imphal, India",12000.0,2015
426,53.852474,-1.83484,27,GBP,1X68GP403F,11,"Bradford, United Kingdom",1166.66666667,2015
427,51.039861,13.688816,54,EUR,21C97042CZ,1,"Dresden, Germany",1949.44444444,2016
428,43.584551,15.927135,10,HRK,1N0QHV3RSZ,10,"Sibenik, Croatia",4150.0,2015
429,-5.821232,-35.230949,45,BRL,1Z330V4122,12,"Natal, Brazil",1600.0,2015
430,45.483101,9.235804,233,EUR,23NPPX43Z5,1,"Milan, Italy",1667.74767857,2016
431,28.349705,77.328463,21,INR,1T6CZ83YC9,10,"Faridabad, India",31800.0,2015
432,-22.798647,-43.180841,25,BRL,25B40A44X2,12,"Niteroi, Brazil",3333.33333333,2015
433,37.977133,23.729875,474,EUR,1YZFSV410A,1,"Athens, Greece",717.856953125,2016
434,37.977133,23.729875,474,EUR,1SCQN53XVY,1,"Athens, Greece",717.856953125,2016
435,41.05251,28.989059,655,TRY,249GNP44C8,1,"Istanbul, Turkey",1999.0559375,2016
436,29.57058,-81.199211,7,USD,120RRA3BXC,12,"Palm Coast, FL, United States",2583.33333333,2015
437,32.067319,34.781028,197,ILS,1MGRAX3R5T,1,"Tel Aviv-yafo, Israel",7480.0,2016
438,32.555602,-84.902136,25,USD,21R5DB42KN,12,"Columbus, GA, United States",1499.66666667,2015
439,-43.546061,172.666936,110,NZD,1D7KGA3J65,12,"Christchurch, New Zealand",2811.11111111,2015
440,51.550958,-1.785773,22,GBP,1FFXCG3KKW,12,"Swindon, United Kingdom",1649.39,2015
441,39.15187,-76.634516,95,USD,1HXSR73NTJ,1,"Baltimore, MD, United States",3226.46136364,2016
442,49.896816,-97.28937,148,CAD,YXC5K39WQ,1,"Winnipeg, Canada",2827.875,2016
443,47.421556,8.302713,14,CHF,2874KD46MV,12,"Baden, Switzerland",5000.0,2015
444,43.599404,-79.703789,82,CAD,19NX8A3FNA,1,"Mississauga, Canada",2250.11111111,2016
445,1.321267,103.741124,569,SGD,281PZZ46FD,1,"Singapore, Singapore",4219.46424104,2016
446,-25.443494,-49.056411,127,BRL,1KHSGB3QA6,1,"Curitiba, Brazil",1675.0,2016
447,41.019867,29.100257,655,TRY,2DN1YD4FV1,1,"Istanbul, Turkey",1999.0559375,2016
448,51.550958,-1.785773,22,GBP,1D90BY3J6S,12,"Swindon, United Kingdom",1649.39,2015
449,32.19089,-110.833431,89,USD,1CGQBN3HPD,12,"Tucson, AZ, United States",2905.55555556,2015
450,46.80969,-71.225329,88,CAD,1Y0VAR40GD,1,"Quebec City, Canada",2811.64814815,2016
451,40.708825,-73.827046,1,JMD,23BZBT43R7,7,"Richmond, Jamaica",150000.0,2014
452,-6.212867,106.690819,22,IDR,1FCP8C3KGP,1,"Tangerang, Indonesia",4000000.0,2016
453,32.067319,34.781028,197,ILS,21TKTE42NP,1,"Tel Aviv-yafo, Israel",7480.0,2016
454,34.045806,-118.250712,323,USD,13D4EK3CFP,1,"Los Angeles, CA, United States",3094.83787879,2016
455,53.499801,49.398856,4,USD,2BJMEY4B6C,11,"Tolyatti (Togliatti), Russia",450.0,2015
456,46.80969,-71.225329,88,CAD,22EG5V432W,1,"Quebec City, Canada",2811.64814815,2016
457,11.060426,76.973628,69,INR,1ZN4FG41BT,12,"Coimbatore, India",20863.6363636,2015
458,51.517035,-0.131344,867,GBP,1VMMMR3ZAW,1,"London, United Kingdom",1995.42261409,2016
459,40.561848,-111.850968,100,USD,1G5A0V3M49,1,"Salt Lake City, UT, United States",3354.39,2016
460,-26.033076,28.077629,24,ZAR,22Z8XN43E4,12,"Sandton, South Africa",31500.0,2015
461,32.067319,34.781028,197,ILS,1DEPR33JA0,1,"Tel Aviv-yafo, Israel",7480.0,2016
462,-7.255091,112.71331,40,IDR,28SNQ947AB,1,"Surabaya, Indonesia",3926000.0,2016
463,51.05786,4.482376,8,EUR,1TPJ4Y3YSQ,12,"Mechelen, Belgium",2000.0,2015
464,34.270802,-118.763323,9,USD,19EBA03FEK,12,"Simi Valley, CA, United States",2200.0,2015
465,-12.846628,-38.468195,46,BRL,2CE2BS4D58,1,"Salvador, Brazil",1058.33333333,2016
466,-37.687074,145.062997,422,AUD,1751XZ3E0Q,1,"Melbourne, Australia",4249.66107143,2016
467,-25.651639,28.132589,89,ZAR,1TQ3T13YTD,12,"Pretoria, South Africa",22390.6470588,2015
468,28.349705,77.328463,21,INR,1W1V0K3ZJB,10,"Faridabad, India",31800.0,2015
469,32.067319,34.781028,197,ILS,15NZ7B3DD8,1,"Tel Aviv-yafo, Israel",7480.0,2016
470,52.402488,0.26782,75,GBP,1XTFHW40E5,1,"Cambridge, United Kingdom",2016.66666667,2016
471,51.517035,-0.131344,867,GBP,1TF9F23YND,1,"London, United Kingdom",1995.42261409,2016
472,33.496281,-102.022011,29,USD,18ZKEX3F27,12,"Lubbock, TX, United States",2217.475,2015
473,46.2977,16.344015,16,HRK,1SC12X3XVF,12,"Varazdin, Croatia",4200.0,2015
474,34.064353,-118.375347,4,USD,19R8VM3FPC,11,"West Hollywood, CA, United States",3900.0,2015
475,13.072373,80.199958,4,INR,1RXA8C3XF6,12,"Madras, India",23500.0,2015
476,-6.182666,106.662338,22,IDR,1A7RZ33G2K,1,"Tangerang, Indonesia",4000000.0,2016
477,-6.261709,106.959906,8,IDR,1P4J043T72,11,"Bekasi, Indonesia",5977500.0,2015
478,39.15187,-76.634516,95,USD,1PMS6R3TNB,1,"Baltimore, MD, United States",3226.46136364,2016
479,32.067319,34.781028,197,ILS,16K1M83DQW,1,"Tel Aviv-yafo, Israel",7480.0,2016
480,12.937828,80.151819,4,INR,20YAE64239,12,"Madras, India",23500.0,2015
481,37.671699,-122.477072,297,USD,1VXSAC3ZFJ,1,"San Francisco, CA, United States",4199.18947368,2016
482,35.952942,-86.657439,111,USD,23CCZA43RY,12,"Nashville, TN, United States",3190.88888889,2015
483,48.191427,16.279352,182,EUR,2CQ8D84DVK,1,"Vienna, Austria",1889.936,2016
484,46.80969,-71.225329,88,CAD,24P8TA44JP,1,"Quebec City, Canada",2811.64814815,2016
485,-1.243664,116.899927,12,IDR,2FE4XR4JSM,7,"Balikpapan, Indonesia",7659333.33333,2015
486,32.067319,34.781028,197,ILS,1CH4BP3HQ5,1,"Tel Aviv-yafo, Israel",7480.0,2016
487,53.499801,49.398856,4,USD,2C84JX4CKK,11,"Tolyatti (Togliatti), Russia",450.0,2015
488,43.7807,-88.441767,5,USD,1MHK3N3R72,10,"Fond du Lac, WI, United States",2569.47,2015
489,43.584551,15.927135,10,HRK,1JS98B3PQ2,10,"Sibenik, Croatia",4150.0,2015
490,35.837901,50.992994,11,USD,21C8DT42CP,12,"Karaj, Iran",775.0,2015
491,-25.443494,-49.056411,127,BRL,1Q3DMF3V9W,1,"Curitiba, Brazil",1675.0,2016
492,53.818569,-1.572518,96,GBP,25JGKT451B,1,"Leeds, United Kingdom",1659.33333333,2016
493,32.067319,34.781028,197,ILS,14WEAY3D2E,1,"Tel Aviv-yafo, Israel",7480.0,2016
494,-7.238452,112.734996,40,IDR,1PNJJ33TNQ,1,"Surabaya, Indonesia",3926000.0,2016
495,29.57058,-81.199211,7,USD,1A3DTQ3FYS,12,"Palm Coast, FL, United States",2583.33333333,2015
496,52.510964,13.304994,310,EUR,12ZRMW3C9C,1,"Berlin, Germany",1854.6,2016
497,36.516542,-87.310085,9,USD,16CMK03DNW,12,"Clarksville, TN, United States",900.0,2015
498,51.550958,-1.785773,22,GBP,1KFGQY3Q90,12,"Swindon, United Kingdom",1649.39,2015
499,46.80969,-71.225329,88,CAD,2446JG449C,1,"Quebec City, Canada",2811.64814815,2016
500,36.101031,-79.820668,35,USD,2ABQGF496K,12,"Greensboro, NC, United States",3302.83333333,2015
501,-37.687074,145.062997,422,AUD,17X3CR3EBH,1,"Melbourne, Australia",4249.66107143,2016
502,40.462547,-80.054547,130,USD,262SZQ459Y,1,"Pittsburgh, PA, United States",2433.57884615,2016
503,34.270802,-118.763323,9,USD,19999N3FAZ,12,"Simi Valley, CA, United States",2200.0,2015
504,42.993293,-83.692807,22,USD,1QXGW63WC0,11,"Flint, MI, United States",1439.19,2015
505,32.555602,-84.902136,25,USD,22A9PD42Z4,12,"Columbus, GA, United States",1499.66666667,2015
506,61.485375,21.796887,9,EUR,1HM3E23NF7,11,"Pori, Finland",3000.0,2015
507,61.485375,21.796887,9,EUR,1HMFRR3NFV,11,"Pori, Finland",3000.0,2015
508,32.067319,34.781028,197,ILS,1DWE8B3JMF,1,"Tel Aviv-yafo, Israel",7480.0,2016
509,51.53945,-0.096832,867,GBP,1VHK1R3Z9C,1,"London, United Kingdom",1995.42261409,2016
510,51.517035,-0.131344,867,GBP,2293WP42YA,1,"London, United Kingdom",1995.42261409,2016
511,47.412771,18.915021,2,HUF,1Y8MB340MC,10,"Érd, Hungary",118696.453406,2015
512,44.212298,28.623895,32,RON,20J4GA41WB,10,"Constanta, Romania",1425.0,2015
513,39.15187,-76.634516,95,USD,1PEY123TJJ,1,"Baltimore, MD, United States",3226.46136364,2016
514,32.067319,34.781028,197,ILS,2D508M4EP2,1,"Tel Aviv-yafo, Israel",7480.0,2016
515,40.708825,-73.827046,1,JMD,26V6GG45KN,7,"Richmond, Jamaica",150000.0,2014
516,56.945316,24.115333,176,EUR,22M0QM4388,1,"Riga, Latvia",619.9375,2016
517,51.53945,-0.096832,867,GBP,1X61C94035,1,"London, United Kingdom",1995.42261409,2016
518,52.510964,13.304994,310,EUR,12ZQC13C9A,1,"Berlin, Germany",1854.6,2016
519,52.402488,0.26782,75,GBP,1TM8533YRA,1,"Cambridge, United Kingdom",2016.66666667,2016
520,18.956946,72.817666,520,INR,2B14PJ4A84,1,"Mumbai, India",45108.4596842,2016
521,40.708825,-73.827046,1,JMD,20ZBEM4240,7,"Richmond, Jamaica",150000.0,2014
522,32.067319,34.781028,197,ILS,14WD5T3D2C,1,"Tel Aviv-yafo, Israel",7480.0,2016
523,35.837901,50.992994,11,USD,1XE3GM4082,12,"Karaj, Iran",775.0,2015
524,40.708825,-73.827046,1,JMD,2BF95T4B1J,7,"Richmond, Jamaica",150000.0,2014
525,40.145035,-76.215697,19,USD,1QTKQF3W8S,12,"Lancaster, PA, United States",2350.0,2015
526,28.349705,77.328463,21,INR,21K77342H3,10,"Faridabad, India",31800.0,2015
527,53.584482,-2.393858,10,GBP,1J2RTW3NZ3,10,"Bolton, United Kingdom",1498.25,2015
528,40.713473,-73.944737,548,USD,1K0XRH3PXQ,1,"New York, NY, United States",3471.96752343,2016
529,52.402488,0.26782,75,GBP,2141Z84277,1,"Cambridge, United Kingdom",2016.66666667,2016
530,51.53945,-0.096832,867,GBP,1WVDSG3ZX3,1,"London, United Kingdom",1995.42261409,2016
531,-6.221791,106.891523,220,IDR,1PJ2X93TM2,12,"Jakarta, Indonesia",6064285.71429,2015
532,47.225268,5.137244,5,EUR,KJ4SR3479,5,"Dijon, France",1700.0,2015
533,28.349705,77.328463,21,INR,1X78JY403X,10,"Faridabad, India",31800.0,2015
534,37.977133,23.729875,474,EUR,1RFQPT3WY9,1,"Athens, Greece",717.856953125,2016
535,40.7247,-73.563907,4,USD,1W3WTN3ZK6,9,"Hempstead, NY, United States",2690.42,2014
536,40.088233,-76.276765,19,USD,1KAE7E3Q52,12,"Lancaster, PA, United States",2350.0,2015
537,-22.101539,-50.169648,3,BRL,1GEFN53MA3,12,"Marilia, Brazil",1000.0,2015
538,61.485375,21.796887,9,EUR,1HZ9VS3NW7,11,"Pori, Finland",3000.0,2015
539,16.446179,80.99691,8,INR,1V1NVK3Z0P,9,"Eluru, India",25550.0,2015
540,40.713473,-73.944737,548,USD,1ECZTR3JZP,1,"New York, NY, United States",3471.96752343,2016
541,51.517035,-0.131344,867,GBP,1VMMT63ZB0,1,"London, United Kingdom",1995.42261409,2016
542,39.461124,-76.248893,2,USD,24VFF744NJ,12,"Abingdon, MD, United States",2300.0,2015
543,46.883389,-71.296911,88,CAD,1F10HT3K8R,1,"Quebec City, Canada",2811.64814815,2016
544,-6.26634,106.924772,8,IDR,1KSPH53QFB,11,"Bekasi, Indonesia",5977500.0,2015
545,45.658451,12.236974,33,EUR,1ACT093G5J,1,"Treviso, Italy",1625.0,2016
546,47.511145,18.990685,426,HUF,236C7G43HM,1,"Budapest, Hungary",170539.485486,2016
547,52.805251,6.894393,2,EUR,2B0D804A66,7,"Emmen, Netherlands",2000.0,2014
548,28.349705,77.328463,21,INR,1VDENG3Z7H,10,"Faridabad, India",31800.0,2015
549,45.426118,28.012732,20,RON,17ZTXV3EEA,12,"Galati, Romania",1446.75,2015
550,53.069756,8.823655,35,EUR,2B8M8W4AM2,11,"Bremen, Germany",2210.0,2015
551,-19.917468,-43.941316,97,BRL,1K7Y3W3Q22,1,"Belo Horizonte, Brazil",1706.25,2016
552,-33.284804,149.098682,5,AUD,1F40K13K9J,11,"Orange, NSW, Australia",4458.0,2015
553,-25.674133,28.211663,89,ZAR,26F3AN45F5,12,"Pretoria, South Africa",22390.6470588,2015
554,33.827727,-84.332651,2,USD,29B06Q47ZB,12,"Buckhead, GA, United States",3000.0,2015
555,29.57058,-81.199211,7,USD,10VJBF3BDY,12,"Palm Coast, FL, United States",2583.33333333,2015
556,53.584482,-2.393858,10,GBP,1HYBCN3NV7,10,"Bolton, United Kingdom",1498.25,2015
557,47.412771,18.915021,2,HUF,25X4PW456D,10,"Érd, Hungary",118696.453406,2015
558,29.57058,-81.199211,7,USD,120RDW3BXA,12,"Palm Coast, FL, United States",2583.33333333,2015
559,40.088233,-76.276765,19,USD,2CNZM94DQ3,12,"Lancaster, PA, United States",2350.0,2015
560,39.16804,-84.560166,86,USD,1VDN633Z7P,12,"Cincinnati, OH, United States",2619.80384615,2015
561,22.766912,75.88176,52,INR,1ZZZFT41HS,12,"Indore, India",16222.2222222,2015
562,52.510964,13.304994,310,EUR,E4KSS31PZ,1,"Berlin, Germany",1854.6,2016
563,-33.284804,149.098682,5,AUD,12VTSX3C7X,11,"Orange, NSW, Australia",4458.0,2015
564,36.101031,-79.820668,35,USD,1PS15Q3TWK,12,"Greensboro, NC, United States",3302.83333333,2015
565,51.53945,-0.096832,867,GBP,1WVNXQ3ZX7,1,"London, United Kingdom",1995.42261409,2016
566,51.517035,-0.131344,867,GBP,1VAJVR3Z5Q,1,"London, United Kingdom",1995.42261409,2016
567,40.726083,-74.228686,48,USD,2AWA2149ZP,12,"Newark, NJ, United States",2801.25,2015
568,32.067319,34.781028,197,ILS,1EKTNX3K2K,1,"Tel Aviv-yafo, Israel",7480.0,2016
569,-1.294718,36.887131,102,KES,1T9A5J3YFB,12,"Nairobi, Kenya",28597.0,2015
570,-5.821232,-35.230949,45,BRL,1VX1QF3ZF0,12,"Natal, Brazil",1600.0,2015
571,39.16804,-84.560166,86,USD,1RG7B23WYP,12,"Cincinnati, OH, United States",2619.80384615,2015
572,54.662453,25.250484,146,EUR,1ZS8A041E2,1,"Vilnius, Lithuania",625.637727029,2016
573,25.456048,-100.99027,13,MXN,2CA2524CVE,9,"Saltillo, Mexico",7454.0,2015
574,37.729925,-122.41921,297,USD,1M1K2D3QMZ,1,"San Francisco, CA, United States",4199.18947368,2016
575,33.436947,-111.76579,32,USD,1CTRDZ3HWD,12,"Mesa, AZ, United States",2457.20625,2015
576,35.97069,-86.602268,15,USD,12XHFR3C87,12,"Murfreesboro, TN, United States",2491.53333333,2015
577,46.2977,16.344015,16,HRK,2CX2ZW4E7A,12,"Varazdin, Croatia",4200.0,2015
578,40.713473,-73.944737,548,USD,1P0VRY3SYB,1,"New York, NY, United States",3471.96752343,2016
579,51.517035,-0.131344,867,GBP,1TQ2B73YT6,1,"London, United Kingdom",1995.42261409,2016
580,42.363625,-71.064669,251,USD,WNC7Y3683,1,"Boston, MA, United States",3503.35022625,2016
581,44.641327,-63.574734,109,CAD,1QRZ3Z3W72,1,"Halifax, Canada",2828.96666667,2016
582,37.977133,23.729875,474,EUR,1ZMQAF41BJ,1,"Athens, Greece",717.856953125,2016
583,39.994759,-76.754929,18,USD,1D1P3P3J1E,1,"York, PA, United States",3000.0,2016
584,-37.687074,145.062997,422,AUD,1759TP3E0T,1,"Melbourne, Australia",4249.66107143,2016
585,43.584551,15.927135,10,HRK,1MYR043RRH,10,"Sibenik, Croatia",4150.0,2015
586,34.045806,-118.250712,323,USD,132WK63CAM,1,"Los Angeles, CA, United States",3094.83787879,2016
587,39.16804,-84.560166,86,USD,1R0QQC3WEX,12,"Cincinnati, OH, United States",2619.80384615,2015
588,49.806316,-97.165659,148,CAD,2ER8ZH4HQ5,1,"Winnipeg, Canada",2827.875,2016
589,52.510964,13.304994,310,EUR,1DRJ1Z3JGZ,1,"Berlin, Germany",1854.6,2016
590,42.363625,-71.064669,251,USD,16KV3W3DR7,1,"Boston, MA, United States",3503.35022625,2016
591,51.550954,-1.781141,22,GBP,1ZVAYF41FD,12,"Swindon, United Kingdom",1649.39,2015
592,-25.674133,28.211663,89,ZAR,272E7Z45QM,12,"Pretoria, South Africa",22390.6470588,2015
593,45.155556,26.806823,10,RON,26F34G45F3,12,"Buzau, Romania",1410.0,2015
594,13.072373,80.199958,4,INR,1RYMJ23XHS,12,"Madras, India",23500.0,2015
595,37.977133,23.729875,474,EUR,1SWC863Y68,1,"Athens, Greece",717.856953125,2016
596,53.818569,-1.572518,96,GBP,221P8C42SE,1,"Leeds, United Kingdom",1659.33333333,2016
597,49.184671,16.590938,112,CZK,RQ52W34MK,1,"Brno, Czech Republic",22650.875,2016
598,-12.846628,-38.468195,46,BRL,2CE25Y4D54,1,"Salvador, Brazil",1058.33333333,2016
599,49.59629,6.135862,87,EUR,QY3PV34G3,1,"Luxembourg, Luxembourg",3360.0,2016
600,46.80969,-71.225329,88,CAD,1YC66Z40PD,1,"Quebec City, Canada",2811.64814815,2016
601,61.485375,21.796887,9,EUR,1FDD8R3KHF,11,"Pori, Finland",3000.0,2015
602,40.713473,-73.944737,548,USD,1DQGYA3JGB,1,"New York, NY, United States",3471.96752343,2016
603,46.80969,-71.225329,88,CAD,23XKT5444G,1,"Quebec City, Canada",2811.64814815,2016
604,44.429451,26.011088,451,RON,1QDX663VWE,1,"Bucharest, Romania",2141.06965436,2016
605,52.389321,4.642399,31,EUR,1SBEPG3XTV,12,"Haarlem, Netherlands",1866.66666667,2015
606,36.101031,-79.820668,35,USD,1X647H403A,12,"Greensboro, NC, United States",3302.83333333,2015
607,51.039861,13.688816,54,EUR,258SNP44W7,1,"Dresden, Germany",1949.44444444,2016
608,46.2977,16.344015,16,HRK,1X8CA7404S,12,"Varazdin, Croatia",4200.0,2015
609,10.70708,-71.628954,7,USD,1PBBCD3TEX,9,"Maracaibo, Venezuela",378.666666667,2015
610,-25.674133,28.211663,89,ZAR,27G02145XX,12,"Pretoria, South Africa",22390.6470588,2015
611,56.945316,24.115333,176,EUR,2990DY47XB,1,"Riga, Latvia",619.9375,2016
612,46.2977,16.344015,16,HRK,1CXS3K3HY2,12,"Varazdin, Croatia",4200.0,2015
613,33.496281,-102.022011,29,USD,18XH403F0A,12,"Lubbock, TX, United States",2217.475,2015
614,52.510964,13.304994,310,EUR,ZT3713AY3,1,"Berlin, Germany",1854.6,2016
615,47.511145,18.990685,426,HUF,1T8DTN3YE6,1,"Budapest, Hungary",170539.485486,2016
616,47.649422,23.553423,11,RON,1QS2CR3W7B,10,"Baia Mare, Romania",1466.90173452,2015
617,33.580293,-112.014532,26,USD,1MG5073R5E,12,"Scottsdale, AZ, United States",4048.97916667,2015
618,-26.155051,28.281456,12,ZAR,1ASF9D3GEX,12,"Benoni, South Africa",15000.0,2015
619,32.067319,34.781028,197,ILS,1NRX1F3SPR,1,"Tel Aviv-yafo, Israel",7480.0,2016
620,19.973716,-102.279243,4,MXN,1Z0TBD410X,12,"Zamora de Hidalgo, Mexico",6750.0,2015
621,49.184671,16.590938,112,CZK,R330034GV,1,"Brno, Czech Republic",22650.875,2016
622,55.750309,24.34544,10,EUR,29QGW948AK,7,"Panevezys, Lithuania",442.704711601,2015
623,33.930601,-84.47292,23,USD,1PTPGD3TYD,12,"Marietta, GA, United States",1700.0,2015
624,53.069756,8.823655,35,EUR,1GQKW33MQ2,11,"Bremen, Germany",2210.0,2015
625,51.550958,-1.785773,22,GBP,190YV93F3C,12,"Swindon, United Kingdom",1649.39,2015
626,53.584482,-2.393858,10,GBP,1HV3WQ3NRF,10,"Bolton, United Kingdom",1498.25,2015
627,28.349705,77.328463,21,INR,1V23J43Z12,10,"Faridabad, India",31800.0,2015
628,52.510964,13.304994,310,EUR,1S5VG33XQA,1,"Berlin, Germany",1854.6,2016
629,-34.865049,138.558169,143,AUD,S2WPM34R3,1,"Adelaide, Australia",4471.88235294,2016
630,-7.238452,112.734996,40,IDR,1FYJ5G3M0W,1,"Surabaya, Indonesia",3926000.0,2016
631,52.510964,13.304994,310,EUR,XWTAJ36MZ,1,"Berlin, Germany",1854.6,2016
632,52.402488,0.26782,75,GBP,21BVTC42CB,1,"Cambridge, United Kingdom",2016.66666667,2016
633,40.708825,-73.827046,1,JMD,2DP6WR4FXA,7,"Richmond, Jamaica",150000.0,2014
634,12.937828,80.151819,4,INR,2270KE42WV,12,"Madras, India",23500.0,2015
635,28.349705,77.328463,21,INR,20PYTW41ZB,10,"Faridabad, India",31800.0,2015
636,33.958454,-83.373013,43,USD,22AT3J42ZK,12,"Athens, GA, United States",2386.66666667,2015
637,52.510964,13.304994,310,EUR,29TD3M48EP,1,"Berlin, Germany",1854.6,2016
638,22.766912,75.88176,52,INR,1Y4TXT40HX,12,"Indore, India",16222.2222222,2015
639,46.2977,16.344015,16,HRK,1E5XJB3JV7,12,"Varazdin, Croatia",4200.0,2015
640,29.57058,-81.199211,7,USD,14CVYR3CWV,12,"Palm Coast, FL, United States",2583.33333333,2015
641,40.088233,-76.276765,19,USD,2CNZPK4DQ8,12,"Lancaster, PA, United States",2350.0,2015
642,-7.238452,112.734996,40,IDR,1G5A4F3M4B,1,"Surabaya, Indonesia",3926000.0,2016
643,37.977133,23.729875,474,EUR,1PY7QA3V2D,1,"Athens, Greece",717.856953125,2016
644,53.584482,-2.393858,10,GBP,1HY2W13NTV,10,"Bolton, United Kingdom",1498.25,2015
645,37.729925,-122.41921,297,USD,1MH11S3R65,1,"San Francisco, CA, United States",4199.18947368,2016
646,46.052224,14.520031,144,EUR,1HEV1J3N9Y,1,"Ljubljana, Slovenia",1046.35483871,2016
647,35.899404,-79.024942,15,USD,TC9AK3566,12,"Chapel Hill, NC, United States",2800.0,2015
648,35.837901,50.992994,11,USD,1XE3ZF408B,12,"Karaj, Iran",775.0,2015
649,12.998183,77.642797,578,INR,2DMZFN4FTS,1,"Bangalore, India",45535.3902344,2016
650,52.543692,13.411384,310,EUR,2EQ4HJ4HNT,1,"Berlin, Germany",1854.6,2016
651,12.973725,80.127679,4,INR,2DJBVT4FP9,12,"Madras, India",23500.0,2015
652,37.977133,23.729875,474,EUR,1Q197N3V74,1,"Athens, Greece",717.856953125,2016
653,49.627643,6.13686,87,EUR,2F9DY74JH1,1,"Luxembourg, Luxembourg",3360.0,2016
654,47.51213,19.076624,426,HUF,20SW9A420Y,1,"Budapest, Hungary",170539.485486,2016
655,37.766571,-122.458944,297,USD,1D2QW53J2B,1,"San Francisco, CA, United States",4199.18947368,2016
656,13.051637,80.213614,4,INR,21RHHW42M1,12,"Madras, India",23500.0,2015
657,-25.674133,28.211663,89,ZAR,22KTMM4384,12,"Pretoria, South Africa",22390.6470588,2015
658,35.837901,50.992994,11,USD,1XBAN9406C,12,"Karaj, Iran",775.0,2015
659,46.80969,-71.225329,88,CAD,1SRTHF3Y42,1,"Quebec City, Canada",2811.64814815,2016
660,48.763876,9.154961,73,EUR,106AGX3B3Q,1,"Stuttgart, Germany",2543.33333333,2016
661,36.101031,-79.820668,35,USD,1M17SG3QMJ,12,"Greensboro, NC, United States",3302.83333333,2015
662,12.973725,80.127679,4,INR,2A3KTN48WE,12,"Madras, India",23500.0,2015
663,32.067319,34.781028,197,ILS,186AEA3EHW,1,"Tel Aviv-yafo, Israel",7480.0,2016
664,53.069756,8.823655,35,EUR,1GK93N3MGT,11,"Bremen, Germany",2210.0,2015
665,28.349705,77.328463,21,INR,1ZZYSS41HN,10,"Faridabad, India",31800.0,2015
666,32.067319,34.781028,197,ILS,1NRXF73SPS,1,"Tel Aviv-yafo, Israel",7480.0,2016
667,-1.30217,36.768846,102,KES,29MBPD488A,12,"Nairobi, Kenya",28597.0,2015
668,-23.299983,-46.009879,28,BRL,27G80345Y7,12,"Sao Jose dos Campos, Brazil",1932.0,2015
669,37.766571,-122.458944,297,USD,1VSS053ZDJ,1,"San Francisco, CA, United States",4199.18947368,2016
670,55.689747,12.565023,235,DKK,F1K8G31VH,1,"Copenhagen, Denmark",19588.6538462,2016
671,52.510964,13.304994,310,EUR,H93TB31ZV,1,"Berlin, Germany",1854.6,2016
672,19.973716,-102.279243,4,MXN,23Z1XK445Z,12,"Zamora de Hidalgo, Mexico",6750.0,2015
673,-7.238452,112.734996,40,IDR,1GBYQ43M8V,1,"Surabaya, Indonesia",3926000.0,2016
674,51.517035,-0.131344,867,GBP,20MW2K41XP,1,"London, United Kingdom",1995.42261409,2016
675,42.993293,-83.692807,22,USD,1QJZK43W26,11,"Flint, MI, United States",1439.19,2015
676,-7.238452,112.734996,40,IDR,22AZ2R42ZR,1,"Surabaya, Indonesia",3926000.0,2016
677,-6.221791,106.891523,220,IDR,1QBA113VQ9,12,"Jakarta, Indonesia",6064285.71429,2015
678,33.958454,-83.373013,43,USD,26E8MF45EW,12,"Athens, GA, United States",2386.66666667,2015
679,26.567606,-81.723379,48,USD,1GH5PH3MBP,12,"Fort Myers, FL, United States",2233.33333333,2015
680,30.191369,-98.09499,226,USD,13VEEW3CNX,1,"Austin, TX, United States",2856.28055556,2016
681,43.738254,-79.567904,13,CAD,1HAFAF3N66,12,"Vaughan, Canada",3050.0,2015
682,44.861987,-0.554078,37,EUR,192G2W3F65,12,"Bordeaux, France",1469.27857143,2015
683,45.607591,15.245681,1,EUR,16XE4J3DWP,12,"Crnomelj, Slovenia",881.0,2015
684,26.386271,-80.09658,16,USD,1VM55X3ZA9,12,"Boca Raton, FL, United States",4746.58333333,2015
685,31.559707,-97.190087,19,USD,1B0VZM3GK4,12,"Waco, TX, United States",2381.575,2015
686,41.019867,29.100257,655,TRY,2CK21M4DEZ,1,"Istanbul, Turkey",1999.0559375,2016
687,35.97069,-86.602268,15,USD,13MDYE3CJJ,12,"Murfreesboro, TN, United States",2491.53333333,2015
688,28.349705,77.328463,21,INR,1SVV8B3Y62,10,"Faridabad, India",31800.0,2015
689,41.019867,29.100257,655,TRY,2DN1DS4FTW,1,"Istanbul, Turkey",1999.0559375,2016
690,50.343577,7.56679,9,EUR,HGRGP320Q,9,"Koblenz, Germany",2766.66666667,2015
691,19.871125,75.324231,25,INR,1SFQTE3XXF,12,"Aurangabad, India",19000.0,2015
692,40.088233,-76.276765,19,USD,1FK3SF3KPT,12,"Lancaster, PA, United States",2350.0,2015
693,40.713473,-73.944737,548,USD,1J1NM43NYC,1,"New York, NY, United States",3471.96752343,2016
694,37.804199,-122.407146,297,USD,258QZP44W4,1,"San Francisco, CA, United States",4199.18947368,2016
695,30.12104,-97.757796,226,USD,21FF2S42F6,1,"Austin, TX, United States",2856.28055556,2016
696,56.945316,24.115333,176,EUR,2666AR45B9,1,"Riga, Latvia",619.9375,2016
697,52.510964,13.304994,310,EUR,HV67N321N,1,"Berlin, Germany",1854.6,2016
698,32.067319,34.781028,197,ILS,1C9QP03HHZ,1,"Tel Aviv-yafo, Israel",7480.0,2016
699,37.977133,23.729875,474,EUR,1YNX2A40VP,1,"Athens, Greece",717.856953125,2016
700,13.051637,80.213614,4,INR,22F3SC4349,12,"Madras, India",23500.0,2015
701,37.729925,-122.41921,297,USD,1FMQHV3KRH,1,"San Francisco, CA, United States",4199.18947368,2016
702,49.184671,16.590938,112,CZK,S1H0R34QG,1,"Brno, Czech Republic",22650.875,2016
703,-23.254543,-45.905748,28,BRL,2F38TB4J90,12,"Sao Jose dos Campos, Brazil",1932.0,2015
704,43.418776,-79.75442,24,CAD,1QGZN23W0N,12,"Oakville, Canada",2350.0,2015
705,40.145035,-76.215697,19,USD,1XBYP4406P,12,"Lancaster, PA, United States",2350.0,2015
706,-22.864852,-47.046694,81,BRL,2E1EPN4GHK,12,"Campinas, Brazil",2385.22222222,2015
707,55.689747,12.565023,235,DKK,S1DS334QC,1,"Copenhagen, Denmark",19588.6538462,2016
708,-25.95498,28.11498,4,ZAR,1P2RWV3T46,6,"Midrand, South Africa",15000.0,2015
709,39.461124,-76.248893,2,USD,26TKN845K6,12,"Abingdon, MD, United States",2300.0,2015
710,46.80969,-71.225329,88,CAD,1X7T8K404C,1,"Quebec City, Canada",2811.64814815,2016
711,45.483101,9.235804,234,EUR,27JMEY45ZK,1,"Milan, Italy",1667.74767857,2016
712,47.511145,18.990685,426,HUF,29YPDB48KB,1,"Budapest, Hungary",170539.485486,2016
713,53.339978,-6.276475,438,EUR,1KCPKB3Q6D,1,"Dublin, Ireland",2459.49182542,2016
714,55.874775,-3.971198,105,GBP,2BTYEA4BQW,12,"Glasgow, United Kingdom",1717.23333333,2015
715,-7.238452,112.734996,40,IDR,1E31Q03JSJ,1,"Surabaya, Indonesia",3926000.0,2016
716,56.945316,24.115333,176,EUR,23RT324414,1,"Riga, Latvia",619.9375,2016
717,19.912735,75.350203,25,INR,1WPZB83ZV2,12,"Aurangabad, India",19000.0,2015
718,51.039861,13.688816,54,EUR,21HFW742G0,1,"Dresden, Germany",1949.44444444,2016
719,47.51213,19.076624,426,HUF,21JQM842GV,1,"Budapest, Hungary",170539.485486,2016
720,10.70708,-71.628954,7,USD,2DZYYQ4GEC,9,"Maracaibo, Venezuela",378.666666667,2015
721,10.70708,-71.628954,7,USD,1ZDKSR4176,9,"Maracaibo, Venezuela",378.666666667,2015
722,48.546613,39.387215,2,USD,1V3F8A3Z1T,11,"Lugansk, Ukraine",47.4687299741,2015
723,28.349705,77.328463,21,INR,1SFGZ33XX8,10,"Faridabad, India",31800.0,2015
724,-34.072743,18.843202,13,ZAR,125PZV3C01,12,"Somerset West, South Africa",27416.6666667,2015
725,46.80969,-71.225329,88,CAD,1WJ6CX3ZS1,1,"Quebec City, Canada",2811.64814815,2016
726,46.2977,16.344015,16,HRK,1Y8RXP40MH,12,"Varazdin, Croatia",4200.0,2015
727,52.510964,13.304994,310,EUR,WT44N36AG,1,"Berlin, Germany",1854.6,2016
728,40.708825,-73.827046,1,JMD,2BEP7V4B0A,7,"Richmond, Jamaica",150000.0,2014
729,28.349705,77.328463,21,INR,1VQ1563ZBZ,10,"Faridabad, India",31800.0,2015
730,-6.212867,106.690819,22,IDR,1DW1533JKQ,1,"Tangerang, Indonesia",4000000.0,2016
731,49.184671,16.590938,112,CZK,S1GYS34QF,1,"Brno, Czech Republic",22650.875,2016
732,37.977133,23.729875,474,EUR,1YCYYB40PS,1,"Athens, Greece",717.856953125,2016
733,52.540658,13.417918,310,EUR,E4ESQ31PV,1,"Berlin, Germany",1854.6,2016
734,51.69961,-3.105375,8,GBP,R4R4034HG,11,"Newport, United Kingdom",1725.0,2015
735,42.363625,-71.064669,251,USD,160GZR3DJB,1,"Boston, MA, United States",3503.35022625,2016
736,53.818569,-1.572518,96,GBP,21T1GG42N6,1,"Leeds, United Kingdom",1659.33333333,2016
737,53.584482,-2.393858,10,GBP,1HKPCT3NE6,10,"Bolton, United Kingdom",1498.25,2015
738,32.067319,34.781028,197,ILS,1QBNSB3VR8,1,"Tel Aviv-yafo, Israel",7480.0,2016
739,45.621995,-73.874764,16,CAD,1BWKBP3H5Z,9,"Laval, Canada",2683.33333333,2015
740,-37.687074,145.062997,422,AUD,1759Z53E0V,1,"Melbourne, Australia",4249.66107143,2016
741,53.584482,-2.393858,10,GBP,1J0SDR3NXR,10,"Bolton, United Kingdom",1498.25,2015
742,29.57058,-81.199211,7,USD,15HQGB3DAX,12,"Palm Coast, FL, United States",2583.33333333,2015
743,32.067319,34.781028,197,ILS,16110H3DJG,1,"Tel Aviv-yafo, Israel",7480.0,2016
744,51.517035,-0.131344,867,GBP,225XN642WD,1,"London, United Kingdom",1995.42261409,2016
745,27.688635,-97.415156,27,USD,1RDATZ3WVV,12,"Corpus Christi, TX, United States",2250.0,2015
746,52.540658,13.417918,310,EUR,F3KTE31VS,1,"Berlin, Germany",1854.6,2016
747,-43.546061,172.666936,110,NZD,19EPM23FEZ,12,"Christchurch, New Zealand",2811.11111111,2015
748,-25.674133,28.211663,89,ZAR,2A23EB48T6,12,"Pretoria, South Africa",22390.6470588,2015
749,34.064353,-118.375347,4,USD,18C80T3EMG,11,"West Hollywood, CA, United States",3900.0,2015
750,59.376457,24.64509,2,EUR,14BSZ73CWD,1,"Saue, Estonia",700.0,2015
751,-33.284804,149.098682,5,AUD,11E43F3BQT,11,"Orange, NSW, Australia",4458.0,2015
752,40.088233,-76.276765,19,USD,1MQ0RW3RJP,12,"Lancaster, PA, United States",2350.0,2015
753,46.2977,16.344015,16,HRK,1P1Q1D3T17,12,"Varazdin, Croatia",4200.0,2015
754,43.584551,15.927135,10,HRK,1Q3HGM3VA1,10,"Sibenik, Croatia",4150.0,2015
755,48.763876,9.154961,73,EUR,156N9Q3D6E,1,"Stuttgart, Germany",2543.33333333,2016
756,35.899404,-79.024942,15,USD,1291HQ3C1F,12,"Chapel Hill, NC, United States",2800.0,2015
757,35.97069,-86.602268,15,USD,13FS853CGP,12,"Murfreesboro, TN, United States",2491.53333333,2015
758,34.064353,-118.375347,4,USD,18H81X3ET2,11,"West Hollywood, CA, United States",3900.0,2015
759,53.367127,-1.493888,65,GBP,1H1Z7P3MZG,12,"Sheffield, United Kingdom",1281.0,2015
760,32.067319,34.781028,197,ILS,1PADHR3TDR,1,"Tel Aviv-yafo, Israel",7480.0,2016
761,-1.303468,36.774764,102,KES,15KQRM3DBZ,12,"Nairobi, Kenya",28597.0,2015
762,51.550958,-1.785773,22,GBP,1D77Z63J5R,12,"Swindon, United Kingdom",1649.39,2015
763,42.815994,-73.989226,18,EUR,GW8RA31Z6,12,"Malta, Malta",1257.5,2015
764,61.485375,21.796887,9,EUR,1CWNQC3HX5,11,"Pori, Finland",3000.0,2015
765,39.982176,-105.248142,34,USD,1S32FK3XNB,12,"Boulder, CO, United States",3333.33333333,2015
766,46.2977,16.344015,16,HRK,1QX9ND3WBT,12,"Varazdin, Croatia",4200.0,2015
767,39.15187,-76.634516,95,USD,1QVTGZ3WB0,1,"Baltimore, MD, United States",3226.46136364,2016
768,-7.238452,112.734996,40,IDR,1HRAG83NP9,1,"Surabaya, Indonesia",3926000.0,2016
769,-26.892182,-48.658285,8,BRL,1CE13P3HM6,10,"Itajai, Brazil",1300.0,2015
770,59.350804,18.059719,261,SEK,25DE8Q44Y3,1,"Stockholm, Sweden",23566.2954545,2016
771,-26.892182,-48.658285,8,BRL,1BGKQH3GZ6,10,"Itajai, Brazil",1300.0,2015
772,28.349705,77.328463,21,INR,1W6BWV3ZKX,10,"Faridabad, India",31800.0,2015
773,-26.892182,-48.658285,8,BRL,19KKZ23FKP,10,"Itajai, Brazil",1300.0,2015
774,53.499801,49.398856,4,USD,2C89XT4CKW,11,"Tolyatti (Togliatti), Russia",450.0,2015
775,34.064353,-118.375347,4,USD,19RN803FPR,11,"West Hollywood, CA, United States",3900.0,2015
776,-25.443494,-49.056411,127,BRL,1N525C3S1K,1,"Curitiba, Brazil",1675.0,2016
777,30.12104,-97.757796,226,USD,22FGXG434H,1,"Austin, TX, United States",2856.28055556,2016
778,46.910057,19.675587,5,HUF,20HMAH41VV,11,"Kecskemet, Hungary",98333.3333333,2015
779,45.483101,9.235804,234,EUR,13ZWWR3CQE,1,"Milan, Italy",1667.74767857,2016
780,48.525951,-89.215877,25,CAD,24CSQ544DY,11,"Thunder Bay, Canada",2569.85,2015
781,40.145035,-76.215697,19,USD,22400Z42TP,12,"Lancaster, PA, United States",2350.0,2015
782,36.516542,-87.310085,9,USD,16CNAF3DNX,12,"Clarksville, TN, United States",900.0,2015
783,49.806316,-97.165659,148,CAD,2DK8TC4FR4,1,"Winnipeg, Canada",2827.875,2016
784,55.750309,24.34544,10,EUR,29PQD1489S,7,"Panevezys, Lithuania",442.704711601,2015
785,35.97069,-86.602268,15,USD,1FAQFX3KEV,12,"Murfreesboro, TN, United States",2491.53333333,2015
786,32.067319,34.781028,197,ILS,1730543DZ5,1,"Tel Aviv-yafo, Israel",7480.0,2016
787,1.321267,103.741124,569,SGD,2B3GR14AB2,1,"Singapore, Singapore",4219.46424104,2016
788,12.937828,80.151819,4,INR,29HCCS485K,12,"Madras, India",23500.0,2015
789,52.510964,13.304994,310,EUR,12ZQW93C9B,1,"Berlin, Germany",1854.6,2016
790,61.113129,10.4694,10,NOK,29A7Y347YX,10,"Lillehammer, Norway",24050.0,2015
791,46.883389,-71.296911,88,CAD,1EKSWX3K2J,1,"Quebec City, Canada",2811.64814815,2016
792,42.363625,-71.064669,251,USD,V84PX35J6,1,"Boston, MA, United States",3503.35022625,2016
793,32.067319,34.781028,197,ILS,1984333F9X,1,"Tel Aviv-yafo, Israel",7480.0,2016
794,36.101031,-79.820668,35,USD,1GZPNQ3MXP,12,"Greensboro, NC, United States",3302.83333333,2015
795,51.517035,-0.131344,867,GBP,1YBFP340P1,1,"London, United Kingdom",1995.42261409,2016
796,-7.238452,112.734996,40,IDR,1MCVN53R2E,1,"Surabaya, Indonesia",3926000.0,2016
797,-31.997613,115.762944,220,AUD,1NN2C33SGE,1,"Perth, Australia",4046.75,2016
798,45.426118,28.012732,20,RON,194V1W3F85,12,"Galati, Romania",1446.75,2015
799,35.837901,50.992994,11,USD,1X9FV3405E,12,"Karaj, Iran",775.0,2015
800,46.2977,16.344015,16,HRK,1S1X2E3XMF,12,"Varazdin, Croatia",4200.0,2015
801,-43.546061,172.666936,110,NZD,1E2FBD3JS9,12,"Christchurch, New Zealand",2811.11111111,2015
802,28.349705,77.328463,21,INR,1Y6AC440JZ,10,"Faridabad, India",31800.0,2015
803,40.726083,-74.228686,48,USD,2C8PBT4CP0,12,"Newark, NJ, United States",2801.25,2015
804,38.638548,-121.384825,113,USD,1QDH0P3VVP,1,"Sacramento, CA, United States",2746.19857143,2016
805,52.402488,0.26782,75,GBP,20HED441VS,1,"Cambridge, United Kingdom",2016.66666667,2016
806,39.16804,-84.560166,86,USD,1WW7N43ZXS,12,"Cincinnati, OH, United States",2619.80384615,2015
807,40.713473,-73.944737,548,USD,18JTF53ETZ,1,"New York, NY, United States",3471.96752343,2016
808,26.386271,-80.09658,16,USD,1YC9W840PH,12,"Boca Raton, FL, United States",4746.58333333,2015
809,40.708825,-73.827046,1,JMD,2EVB864HVT,7,"Richmond, Jamaica",150000.0,2014
810,61.485375,21.796887,9,EUR,1E34EA3JSM,11,"Pori, Finland",3000.0,2015
811,32.555602,-84.902136,25,USD,1TCX1Y3YJW,12,"Columbus, GA, United States",1499.66666667,2015
812,43.599404,-79.703789,82,CAD,19KFKT3FKC,1,"Mississauga, Canada",2250.11111111,2016
813,28.577422,77.309,56,INR,26CS1J45E3,12,"Noida, India",31800.0,2015
814,35.837901,50.992994,11,USD,1XE3JE4085,12,"Karaj, Iran",775.0,2015
815,31.065493,-97.733157,18,USD,1WPWC13ZTS,11,"Killeen, TX, United States",2066.16666667,2015
816,52.540658,13.417918,310,EUR,G9N2231XZ,1,"Berlin, Germany",1854.6,2016
817,61.485375,21.796887,9,EUR,1ERWTJ3K4Y,11,"Pori, Finland",3000.0,2015
818,35.837901,50.992994,11,USD,21C8CY42CM,12,"Karaj, Iran",775.0,2015
819,35.899404,-79.024942,15,USD,169M043DMS,12,"Chapel Hill, NC, United States",2800.0,2015
820,54.662453,25.250484,146,EUR,28FPFZ46XR,1,"Vilnius, Lithuania",625.637727029,2016
821,34.064353,-118.375347,4,USD,137ZJZ3CD4,11,"West Hollywood, CA, United States",3900.0,2015
822,32.555602,-84.902136,25,USD,23NAM843YN,12,"Columbus, GA, United States",1499.66666667,2015
823,51.881714,0.851165,18,GBP,224GA942V9,1,"Colchester, United Kingdom",1189.16666667,2016
824,36.906216,-80.333256,7,USD,1K92033Q33,11,"Christiansburg, VA, United States",1200.0,2015
825,19.871125,75.324231,25,INR,2B0ZQV4A7N,12,"Aurangabad, India",19000.0,2015
826,-33.829987,18.508987,210,ZAR,27QTV74678,1,"Cape Town, South Africa",18218.0707895,2016
827,12.999759,77.531812,578,INR,2A7SBR491C,1,"Bangalore, India",45535.3902344,2016
828,-31.969048,115.786988,220,AUD,1AHVK83G90,1,"Perth, Australia",4046.75,2016
829,43.418776,-79.75442,24,CAD,1QGF7G3VZN,12,"Oakville, Canada",2350.0,2015
830,52.510964,13.304994,310,EUR,E4MST31Q6,1,"Berlin, Germany",1854.6,2016
831,28.349705,77.328463,21,INR,1VMCK23ZAJ,10,"Faridabad, India",31800.0,2015
832,-23.299983,-46.009879,28,BRL,23HXQT43WW,12,"Sao Jose dos Campos, Brazil",1932.0,2015
833,24.812038,93.915877,9,INR,21WDNA42PN,10,"Imphal, India",12000.0,2015
834,46.824134,-100.902719,20,USD,25GA0T450B,11,"Bismarck, ND, United States",3250.0,2015
835,35.701098,-105.936969,22,USD,1V098X3Z03,12,"Santa Fe, NM, United States",2865.0,2015
836,19.973716,-102.279243,4,MXN,1Z05WT410N,12,"Zamora de Hidalgo, Mexico",6750.0,2015
837,53.069756,8.823655,35,EUR,1YNDCY40V9,11,"Bremen, Germany",2210.0,2015
838,32.067319,34.781028,197,ILS,2CS9MV4E09,1,"Tel Aviv-yafo, Israel",7480.0,2016
839,52.402488,0.26782,75,GBP,24S8SR44M5,1,"Cambridge, United Kingdom",2016.66666667,2016
840,46.2977,16.344015,16,HRK,1SC0ZC3XVD,12,"Varazdin, Croatia",4200.0,2015
841,37.977133,23.729875,474,EUR,1NGV4B3SDH,1,"Athens, Greece",717.856953125,2016
842,35.97069,-86.602268,15,USD,13NVMD3CK4,12,"Murfreesboro, TN, United States",2491.53333333,2015
843,34.064353,-118.375347,4,USD,19RQ5V3FPV,11,"West Hollywood, CA, United States",3900.0,2015
844,-31.447017,-64.188017,18,USD,1KQ1Z43QDK,1,"Cordoba, Argentina",898.6,2016
845,-1.30217,36.768846,102,KES,2C7RGN4CK8,12,"Nairobi, Kenya",28597.0,2015
846,53.584482,-2.393858,10,GBP,1HYKWD3NV8,10,"Bolton, United Kingdom",1498.25,2015
847,28.349705,77.328463,21,INR,1R2HH23WFX,10,"Faridabad, India",31800.0,2015
848,17.738194,83.34012,52,INR,29CKFV481R,1,"Visakhapatnam, India",16250.0,2016
849,-25.443494,-49.056411,127,BRL,1VS49V3ZD4,1,"Curitiba, Brazil",1675.0,2016
850,-1.303468,36.774764,102,KES,1N6K383S41,12,"Nairobi, Kenya",28597.0,2015
851,39.15187,-76.634516,95,USD,1PD3VK3TGS,1,"Baltimore, MD, United States",3226.46136364,2016
852,52.510964,13.304994,310,EUR,1FW10R3KYT,1,"Berlin, Germany",1854.6,2016
853,37.671699,-122.477072,297,USD,1TQFFE3YV6,1,"San Francisco, CA, United States",4199.18947368,2016
854,-22.864852,-47.046694,81,BRL,27QETN466G,12,"Campinas, Brazil",2385.22222222,2015
855,59.428539,24.743918,150,EUR,1AJ1TH3G94,12,"Tallinn, Estonia",847.791666667,2015
856,39.15187,-76.634516,95,USD,1J0HMB3NXK,1,"Baltimore, MD, United States",3226.46136364,2016
857,28.349705,77.328463,21,INR,1Q33B33V8S,10,"Faridabad, India",31800.0,2015
858,37.402682,-5.983645,50,EUR,EJ6QV31T4,12,"Sevilla, Spain",1144.45,2015
859,52.97943,-1.994479,17,GBP,1KHNF73QA2,1,"Stoke-On-Trent, United Kingdom",1115.75,2016
860,28.349705,77.328463,21,INR,1SPN5T3Y20,10,"Faridabad, India",31800.0,2015
861,37.671699,-122.477072,297,USD,1TW08Q3YXZ,1,"San Francisco, CA, United States",4199.18947368,2016
862,-25.443494,-49.056411,127,BRL,205SK741NK,1,"Curitiba, Brazil",1675.0,2016
863,45.483101,9.235804,234,EUR,1CBY4E3HK1,1,"Milan, Italy",1667.74767857,2016
864,51.517035,-0.131344,867,GBP,1Z6SWX413C,1,"London, United Kingdom",1995.42261409,2016
865,37.766571,-122.458944,297,USD,1PXYA13V1H,1,"San Francisco, CA, United States",4199.18947368,2016
866,45.757691,22.940111,11,RON,1YDQZE40Q5,12,"Deva, Romania",1616.66666667,2015
867,56.945316,24.115333,176,EUR,22AD6442ZA,1,"Riga, Latvia",619.9375,2016
868,46.80969,-71.225329,88,CAD,1XSV9J40DQ,1,"Quebec City, Canada",2811.64814815,2016
869,46.80969,-71.225329,88,CAD,1Y4DQ340HS,1,"Quebec City, Canada",2811.64814815,2016
870,53.584482,-2.393858,10,GBP,1HV3ZZ3NRG,10,"Bolton, United Kingdom",1498.25,2015
871,64.117585,-21.84911,141,ISK,1E5W3C3JV5,1,"Reykjavik, Iceland",297000.0,2016
872,51.039861,13.688816,54,EUR,21A0KD42B4,1,"Dresden, Germany",1949.44444444,2016
873,-7.464059,112.716554,40,IDR,1XRRJA40D8,1,"Surabaya, Indonesia",3926000.0,2016
874,-28.080176,153.381727,75,AUD,R5VFA34HY,1,"Gold Coast, Australia",3786.66666667,2016
875,36.101031,-79.820668,35,USD,1JJ4R53PH1,12,"Greensboro, NC, United States",3302.83333333,2015
876,1.448828,103.814968,53,MYR,28NWZD4772,12,"Johor Baharu, Malaysia",2731.66666667,2015
877,-23.299983,-46.009879,28,BRL,270X4945PK,12,"Sao Jose dos Campos, Brazil",1932.0,2015
878,-23.086023,-47.783536,1,BRL,2CB6YN4CXM,12,"Tatui, Brazil",2000.0,2015
879,51.881714,0.851165,18,GBP,23MET043YF,1,"Colchester, United Kingdom",1189.16666667,2016
880,36.101031,-79.820668,35,USD,1JQ79K3PMQ,12,"Greensboro, NC, United States",3302.83333333,2015
881,13.051637,80.213614,4,INR,21RKJ942M3,12,"Madras, India",23500.0,2015
882,34.064353,-118.375347,4,USD,15DVG93D89,11,"West Hollywood, CA, United States",3900.0,2015
883,32.067319,34.781028,197,ILS,17D54X3E4W,1,"Tel Aviv-yafo, Israel",7480.0,2016
884,32.067319,34.781028,197,ILS,1CKSVS3HRT,1,"Tel Aviv-yafo, Israel",7480.0,2016
885,32.067319,34.781028,197,ILS,1F6RJE3KAP,1,"Tel Aviv-yafo, Israel",7480.0,2016
886,-37.687074,145.062997,422,AUD,1751X93E0N,1,"Melbourne, Australia",4249.66107143,2016
887,-12.846628,-38.468195,46,BRL,2CKMB04DHQ,1,"Salvador, Brazil",1058.33333333,2016
888,46.2977,16.344015,16,HRK,1X7YYK404M,12,"Varazdin, Croatia",4200.0,2015
889,-6.216204,106.963525,8,IDR,1QFN4A3VYA,11,"Bekasi, Indonesia",5977500.0,2015
890,53.069756,8.823655,35,EUR,20CT9V41RQ,11,"Bremen, Germany",2210.0,2015
891,48.546613,39.387215,2,USD,1V4WB73Z2F,11,"Lugansk, Ukraine",47.4687299741,2015
892,45.155556,26.806823,10,RON,22EJM64334,12,"Buzau, Romania",1410.0,2015
893,45.426118,28.012732,20,RON,1935CP3F6W,12,"Galati, Romania",1446.75,2015
894,37.977133,23.729875,474,EUR,1YVME240YS,1,"Athens, Greece",717.856953125,2016
895,59.432148,24.766478,150,EUR,168END3DMA,12,"Tallinn, Estonia",847.791666667,2015
896,42.700262,23.286768,350,BGN,29YT5H48KM,1,"Sofia, Bulgaria",997.566771174,2016
897,19.973716,-102.279243,4,MXN,24HCS044G4,12,"Zamora de Hidalgo, Mexico",6750.0,2015
898,51.039861,13.688816,54,EUR,238AGT43MV,1,"Dresden, Germany",1949.44444444,2016
899,-7.238452,112.734996,40,IDR,1D3DTT3J31,1,"Surabaya, Indonesia",3926000.0,2016
900,-25.443494,-49.056411,127,BRL,1P823E3TAY,1,"Curitiba, Brazil",1675.0,2016
901,53.766425,-2.339251,7,GBP,1JSHZ43PQB,11,"Burnley, United Kingdom",1900.0,2015
902,53.589842,-113.441089,201,CAD,1145003BKF,1,"Edmonton, Canada",3182.6375,2016
903,37.671699,-122.477072,297,USD,1TR5AR3YVJ,1,"San Francisco, CA, United States",4199.18947368,2016
904,40.708825,-73.827046,1,JMD,20Z3QV423Y,7,"Richmond, Jamaica",150000.0,2014
905,-6.221791,106.891523,220,IDR,1P12E43SYQ,12,"Jakarta, Indonesia",6064285.71429,2015
906,47.225268,5.137244,5,EUR,JZR5J3469,5,"Dijon, France",1700.0,2015
907,52.510964,13.304994,310,EUR,F190431VB,1,"Berlin, Germany",1854.6,2016
908,12.998183,77.642797,578,INR,2EVJYP4HW1,1,"Bangalore, India",45535.3902344,2016
909,-33.434753,151.453866,13,AUD,29EC68482Z,1,"Gosford, Australia",4000.0,2016
910,-25.826142,28.255221,2,ZAR,1T43PV3YAX,6,"Verwoerdburg, South Africa",27000.0,2015
911,51.303787,-1.116983,15,GBP,1NE6723S9X,1,"Basingstoke, United Kingdom",1566.66666667,2016
912,46.80969,-71.225329,88,CAD,1SY2A03Y81,1,"Quebec City, Canada",2811.64814815,2016
913,-31.997613,115.762944,220,AUD,1SKWJN3XZM,1,"Perth, Australia",4046.75,2016
914,43.738254,-79.567904,13,CAD,1GZGZZ3MXA,12,"Vaughan, Canada",3050.0,2015
915,34.064353,-118.375347,4,USD,19RR883FPW,11,"West Hollywood, CA, United States",3900.0,2015
916,61.485375,21.796887,9,EUR,1GWZEE3MV2,11,"Pori, Finland",3000.0,2015
917,-7.464059,112.716554,40,IDR,1XNXV540BS,1,"Surabaya, Indonesia",3926000.0,2016
918,47.225268,5.137244,5,EUR,H90ZS31ZR,5,"Dijon, France",1700.0,2015
919,13.860011,100.517925,2,THB,13BMN63CEZ,8,"Pak Kret, Thailand",9200.0,2015
920,-25.95498,28.11498,4,ZAR,1K663S3Q0P,6,"Midrand, South Africa",15000.0,2015
921,52.510964,13.304994,310,EUR,GSAE931YT,1,"Berlin, Germany",1854.6,2016
922,53.584482,-2.393858,10,GBP,1HMMBG3NH3,10,"Bolton, United Kingdom",1498.25,2015
923,51.550958,-1.785773,22,GBP,1KFEC93Q8T,12,"Swindon, United Kingdom",1649.39,2015
924,44.408788,8.933717,57,EUR,JD033343Q,12,"Genoa, Italy",1679.375,2015
925,43.584551,15.927135,10,HRK,1MXWHR3RQF,10,"Sibenik, Croatia",4150.0,2015
926,19.871125,75.324231,25,INR,1X8Z7D4051,12,"Aurangabad, India",19000.0,2015
927,32.067319,34.781028,197,ILS,2D629H4ES4,1,"Tel Aviv-yafo, Israel",7480.0,2016
928,-23.254543,-45.905748,28,BRL,2EJAZ74HET,12,"Sao Jose dos Campos, Brazil",1932.0,2015
929,33.580293,-112.014532,26,USD,1P40703T6H,12,"Scottsdale, AZ, United States",4048.97916667,2015
930,25.856767,-80.181772,162,USD,1TTB2M3YWM,1,"Miami, FL, United States",3005.28235294,2016
931,19.871125,75.324231,25,INR,2EZ07T4J0S,12,"Aurangabad, India",19000.0,2015
932,46.2977,16.344015,16,HRK,1F7JJX3KBC,12,"Varazdin, Croatia",4200.0,2015
933,19.973716,-102.279243,4,MXN,22GMMB4355,12,"Zamora de Hidalgo, Mexico",6750.0,2015
934,49.896816,-97.28937,148,CAD,YXC0K39WP,1,"Winnipeg, Canada",2827.875,2016
935,37.782731,-122.413586,297,USD,1B9QQE3GS7,1,"San Francisco, CA, United States",4199.18947368,2016
936,37.402682,-5.983645,50,EUR,M4V3B3489,12,"Sevilla, Spain",1144.45,2015
937,47.649422,23.553423,11,RON,1ZXV0P41GF,10,"Baia Mare, Romania",1466.90173452,2015
938,34.045806,-118.250712,323,USD,1CHVGF3HQK,1,"Los Angeles, CA, United States",3094.83787879,2016
939,-6.216204,106.963525,8,IDR,1N54EM3S1Q,11,"Bekasi, Indonesia",5977500.0,2015
940,33.503453,-102.023505,29,USD,17KDK93E79,12,"Lubbock, TX, United States",2217.475,2015
941,53.818569,-1.572518,96,GBP,25JY49451N,1,"Leeds, United Kingdom",1659.33333333,2016
942,13.051637,80.213614,4,INR,213A1E426M,12,"Madras, India",23500.0,2015
943,31.274494,120.734775,23,CNY,1342223CBJ,12,"Suzhou, China",4933.33333333,2015
944,-25.443494,-49.056411,127,BRL,1P3E673T4W,1,"Curitiba, Brazil",1675.0,2016
945,-12.95156,-38.358785,46,BRL,2EB6CC4H1X,1,"Salvador, Brazil",1058.33333333,2016
946,47.511145,18.990685,426,HUF,25ZFRM457Y,1,"Budapest, Hungary",170539.485486,2016
947,32.067319,34.781028,197,ILS,21DDG542DQ,1,"Tel Aviv-yafo, Israel",7480.0,2016
948,-22.798647,-43.180841,25,BRL,255BJH44SJ,12,"Niteroi, Brazil",3333.33333333,2015
949,48.525951,-89.215877,25,CAD,2FB6XB4JMR,11,"Thunder Bay, Canada",2569.85,2015
950,53.448174,7.821003,4,EUR,23M7H943Y8,9,"Wilhelmshaven, Germany",1500.0,2015
951,40.145035,-76.215697,19,USD,1QQVB53W5D,12,"Lancaster, PA, United States",2350.0,2015
952,43.599404,-79.703789,82,CAD,19KFS63FKF,1,"Mississauga, Canada",2250.11111111,2016
953,-31.997613,115.762944,220,AUD,1NK0XM3SEN,1,"Perth, Australia",4046.75,2016
954,37.977133,23.729875,474,EUR,1Q0JHB3V68,1,"Athens, Greece",717.856953125,2016
955,53.069756,8.823655,35,EUR,2C5E7E4CCE,11,"Bremen, Germany",2210.0,2015
956,17.738473,83.335176,52,INR,2A8TCR492T,1,"Visakhapatnam, India",16250.0,2016
957,52.402488,0.26782,75,GBP,1ZCR5T416H,1,"Cambridge, United Kingdom",2016.66666667,2016
958,19.912735,75.350203,25,INR,1Y113C40GM,12,"Aurangabad, India",19000.0,2015
959,32.067319,34.781028,197,ILS,15RP6J3DEQ,1,"Tel Aviv-yafo, Israel",7480.0,2016
960,-7.238452,112.734996,40,IDR,1QKRWC3W33,1,"Surabaya, Indonesia",3926000.0,2016
961,36.148794,-79.295062,1,USD,1F7P003KBT,7,"Yanceyville, NC, United States",1000.0,2014
962,35.701098,-105.936969,22,USD,1QX0RC3WBE,12,"Santa Fe, NM, United States",2865.0,2015
963,34.064353,-118.375347,4,USD,18C9NH3EMH,11,"West Hollywood, CA, United States",3900.0,2015
964,-23.254543,-45.905748,28,BRL,2DYBAV4GAZ,12,"Sao Jose dos Campos, Brazil",1932.0,2015
965,51.000317,-0.939213,3,GBP,2E1JWR4GHP,10,"Alton, United Kingdom",5000.0,2015
966,-6.216204,106.963525,8,IDR,1XDV5M407J,11,"Bekasi, Indonesia",5977500.0,2015
967,34.064353,-118.375347,4,USD,18ET4S3EPD,11,"West Hollywood, CA, United States",3900.0,2015
968,46.2977,16.344015,16,HRK,1KZY4F3QKT,12,"Varazdin, Croatia",4200.0,2015
969,39.15187,-76.634516,95,USD,1PEY3Q3TJM,1,"Baltimore, MD, United States",3226.46136364,2016
970,35.97069,-86.602268,15,USD,17Z3H93EDE,12,"Murfreesboro, TN, United States",2491.53333333,2015
971,47.649422,23.553423,11,RON,1W1F6Q3ZJ3,10,"Baia Mare, Romania",1466.90173452,2015
972,33.436947,-111.76579,32,USD,1BBAQS3GV1,12,"Mesa, AZ, United States",2457.20625,2015
973,32.067319,34.781028,197,ILS,1BFXS93GYC,1,"Tel Aviv-yafo, Israel",7480.0,2016
974,22.766912,75.88176,52,INR,27FKGH45XN,12,"Indore, India",16222.2222222,2015
975,33.832683,-84.603712,23,USD,2CMFVM4DME,12,"Marietta, GA, United States",1700.0,2015
976,54.662453,25.250484,146,EUR,28RDWA4796,1,"Vilnius, Lithuania",625.637727029,2016
977,39.16804,-84.560166,86,USD,1WHXTZ3ZRT,12,"Cincinnati, OH, United States",2619.80384615,2015
978,53.766425,-2.339251,7,GBP,1JSJ053PQC,11,"Burnley, United Kingdom",1900.0,2015
979,47.649422,23.553423,11,RON,21XBAZ42Q5,10,"Baia Mare, Romania",1466.90173452,2015
980,51.000317,-0.939213,3,GBP,2AK8FG49GV,10,"Alton, United Kingdom",5000.0,2015
981,46.883389,-71.296911,88,CAD,1RNW1S3X5T,1,"Quebec City, Canada",2811.64814815,2016
982,40.708825,-73.827046,1,JMD,23BR9X43R3,7,"Richmond, Jamaica",150000.0,2014
983,37.766571,-122.458944,297,USD,1PXZ563V1S,1,"San Francisco, CA, United States",4199.18947368,2016
984,-6.41384,106.859687,4,IDR,2BAM9T4AS9,12,"Depok, Indonesia",3000000.0,2015
985,61.485375,21.796887,9,EUR,1F860V3KC2,11,"Pori, Finland",3000.0,2015
986,35.899404,-79.024942,15,USD,1AJW093GA8,12,"Chapel Hill, NC, United States",2800.0,2015
987,35.899404,-79.024942,15,USD,Y7TQ237FG,12,"Chapel Hill, NC, United States",2800.0,2015
988,26.386271,-80.09658,16,USD,1WB2AY3ZNY,12,"Boca Raton, FL, United States",4746.58333333,2015
989,44.212298,28.623895,32,RON,21RW0542M6,10,"Constanta, Romania",1425.0,2015
990,33.436947,-111.76579,32,USD,1D8XRN3J6M,12,"Mesa, AZ, United States",2457.20625,2015
991,46.2977,16.344015,16,HRK,1RJ9CX3X0S,12,"Varazdin, Croatia",4200.0,2015
992,44.212298,28.623895,32,RON,1VE5003Z7Y,10,"Constanta, Romania",1425.0,2015
993,-6.26634,106.924772,8,IDR,1JJJKQ3PHP,11,"Bekasi, Indonesia",5977500.0,2015
994,40.708825,-73.827046,1,JMD,2CRHNX4DY5,7,"Richmond, Jamaica",150000.0,2014
995,49.806316,-97.165659,148,CAD,1CGF083HP8,1,"Winnipeg, Canada",2827.875,2016
996,32.067319,34.781028,197,ILS,219X4S42B2,1,"Tel Aviv-yafo, Israel",7480.0,2016
997,53.818569,-1.572518,96,GBP,23B49E43QJ,1,"Leeds, United Kingdom",1659.33333333,2016
998,53.584482,-2.393858,10,GBP,1HKG6D3NE0,10,"Bolton, United Kingdom",1498.25,2015
999,64.117585,-21.84911,141,ISK,1E67TS3JVE,1,"Reykjavik, Iceland",297000.0,2016
1000,46.2977,16.344015,16,HRK,1ENC2Z3K3E,12,"Varazdin, Croatia",4200.0,2015
1001,51.000317,-0.939213,3,GBP,2AHGPF49EG,10,"Alton, United Kingdom",5000.0,2015
1002,47.412771,18.915021,2,HUF,1T8CV63YE2,10,"Érd, Hungary",118696.453406,2015
1003,-25.674133,28.211663,89,ZAR,2BRKGN4BK3,12,"Pretoria, South Africa",22390.6470588,2015
1004,-37.687074,145.062997,422,AUD,17TF133EAE,1,"Melbourne, Australia",4249.66107143,2016
1005,46.2977,16.344015,16,HRK,1BRTKH3H41,12,"Varazdin, Croatia",4200.0,2015
1006,28.577422,77.309,56,INR,2AXVPT4A1X,12,"Noida, India",31800.0,2015
1007,35.97069,-86.602268,15,USD,1A216R3FX4,12,"Murfreesboro, TN, United States",2491.53333333,2015
1008,53.499801,49.398856,4,USD,2B79PX4AJH,11,"Tolyatti (Togliatti), Russia",450.0,2015
1009,47.51213,19.076624,426,HUF,1HG63M3NB1,1,"Budapest, Hungary",170539.485486,2016
1010,-22.798647,-43.180841,25,BRL,28JE1M471T,12,"Niteroi, Brazil",3333.33333333,2015
1011,52.543692,13.411384,310,EUR,2B0Y0G4A6W,1,"Berlin, Germany",1854.6,2016
1012,53.069756,8.823655,35,EUR,1H8G4H3N50,11,"Bremen, Germany",2210.0,2015
1013,-33.284804,149.098682,5,AUD,15KKE63DBR,11,"Orange, NSW, Australia",4458.0,2015
1014,46.2977,16.344015,16,HRK,1X7YN5404J,12,"Varazdin, Croatia",4200.0,2015
1015,52.510964,13.304994,310,EUR,Q1X8W34CE,1,"Berlin, Germany",1854.6,2016
1016,56.945316,24.115333,176,EUR,22E3GQ4329,1,"Riga, Latvia",619.9375,2016
1017,35.97069,-86.602268,15,USD,1A22DD3FX5,12,"Murfreesboro, TN, United States",2491.53333333,2015
1018,51.550958,-1.785773,22,GBP,1MM39F3RG0,12,"Swindon, United Kingdom",1649.39,2015
1019,-22.55933,17.077083,45,ZAR,1G4X143M3Y,12,"Windhoek, Namibia",7258.00445209,2015
1020,13.021208,80.2254,4,INR,2FH3VN4JXV,12,"Madras, India",23500.0,2015
1021,16.446179,80.99691,8,INR,1W8V233ZN2,9,"Eluru, India",25550.0,2015
1022,47.649422,23.553423,11,RON,212ZG1426B,10,"Baia Mare, Romania",1466.90173452,2015
1023,34.101952,-118.331733,4,USD,1CTMR73HWB,11,"West Hollywood, CA, United States",3900.0,2015
1024,39.16804,-84.560166,86,USD,1VD28B3Z76,12,"Cincinnati, OH, United States",2619.80384615,2015
1025,52.540658,13.417918,310,EUR,FPVX731WG,1,"Berlin, Germany",1854.6,2016
1026,33.436947,-111.76579,32,USD,1C4K4E3HCP,12,"Mesa, AZ, United States",2457.20625,2015
1027,-6.221791,106.891523,220,IDR,1NADAD3S7A,12,"Jakarta, Indonesia",6064285.71429,2015
1028,34.064353,-118.375347,4,USD,TGM12357N,11,"West Hollywood, CA, United States",3900.0,2015
1029,37.977133,23.729875,474,EUR,1R1CKW3WFD,1,"Athens, Greece",717.856953125,2016
1030,46.2977,16.344015,16,HRK,1DR5NJ3JGV,12,"Varazdin, Croatia",4200.0,2015
1031,-24.717029,-53.742759,8,BRL,2054JR41N0,4,"Cascavel, Brazil",1000.0,2015
1032,12.986224,79.136862,8,INR,18XFVN3F08,5,"Vellore, India",75000.0,2015
1033,40.713473,-73.944737,548,USD,19V5C83FRG,1,"New York, NY, United States",3471.96752343,2016
1034,52.510964,13.304994,310,EUR,19WG3F3FSG,1,"Berlin, Germany",1854.6,2016
1035,-7.238452,112.734996,40,IDR,1FBB143KFJ,1,"Surabaya, Indonesia",3926000.0,2016
1036,51.517035,-0.131344,867,GBP,1T9XEG3YG5,1,"London, United Kingdom",1995.42261409,2016
1037,-6.261709,106.959906,8,IDR,1H8G6G3N53,11,"Bekasi, Indonesia",5977500.0,2015
1038,61.485375,21.796887,9,EUR,1H2GP13N01,11,"Pori, Finland",3000.0,2015
1039,25.456048,-100.99027,13,MXN,2DHDFR4FMP,9,"Saltillo, Mexico",7454.0,2015
1040,32.067319,34.781028,197,ILS,15Z0H33DHT,1,"Tel Aviv-yafo, Israel",7480.0,2016
1041,37.977133,23.729875,474,EUR,1NV17Z3SRE,1,"Athens, Greece",717.856953125,2016
1042,52.510964,13.304994,310,EUR,EH8MV31SR,1,"Berlin, Germany",1854.6,2016
1043,44.29304,-78.318934,14,CAD,1PR4TW3TTE,11,"Peterborough, Canada",2500.0,2015
1044,-25.443494,-49.056411,127,BRL,1TAZKD3YH4,1,"Curitiba, Brazil",1675.0,2016
1045,40.088233,-76.276765,19,USD,20RSKF420C,12,"Lancaster, PA, United States",2350.0,2015
1046,40.708825,-73.827046,1,JMD,24ZZ0444Q9,7,"Richmond, Jamaica",150000.0,2014
1047,51.53945,-0.096832,867,GBP,1Z55CR412V,1,"London, United Kingdom",1995.42261409,2016
1048,-7.464059,112.716554,40,IDR,1X5Z9M4030,1,"Surabaya, Indonesia",3926000.0,2016
1049,28.349705,77.328463,21,INR,1TBYJF3YHG,10,"Faridabad, India",31800.0,2015
1050,47.511145,18.990685,426,HUF,2210SP42S8,1,"Budapest, Hungary",170539.485486,2016
1051,45.483101,9.235804,234,EUR,1M2F4D3QP5,1,"Milan, Italy",1667.74767857,2016
1052,35.837901,50.992994,11,USD,1XFY82408X,12,"Karaj, Iran",775.0,2015
1053,-7.464059,112.716554,40,IDR,1S0YET3XKK,1,"Surabaya, Indonesia",3926000.0,2016
1054,45.483101,9.235804,234,EUR,1R2T143WGW,1,"Milan, Italy",1667.74767857,2016
1055,52.510964,13.304994,310,EUR,WD4AW364Q,1,"Berlin, Germany",1854.6,2016
1056,47.225268,5.137244,5,EUR,EG08A31SK,5,"Dijon, France",1700.0,2015
1057,-37.687074,145.062997,422,AUD,175A073E0X,1,"Melbourne, Australia",4249.66107143,2016
1058,35.899404,-79.024942,15,USD,15K0013DBC,12,"Chapel Hill, NC, United States",2800.0,2015
1059,-23.299983,-46.009879,28,BRL,27JREK4602,12,"Sao Jose dos Campos, Brazil",1932.0,2015
1060,-23.299983,-46.009879,28,BRL,23E6MT43TF,12,"Sao Jose dos Campos, Brazil",1932.0,2015
1061,-23.970511,-46.334904,19,BRL,255AYP44SE,12,"Santos, Brazil",2250.0,2015
1062,19.973716,-102.279243,4,MXN,22SYRS43AZ,12,"Zamora de Hidalgo, Mexico",6750.0,2015
1063,42.815448,-73.970143,18,EUR,EZKCP31V5,12,"Malta, Malta",1257.5,2015
1064,40.088233,-76.276765,19,USD,1TX6P53YYS,12,"Lancaster, PA, United States",2350.0,2015
1065,37.977133,23.729875,474,EUR,1RRTRK3XAM,1,"Athens, Greece",717.856953125,2016
1066,34.064353,-118.375347,4,USD,18GTTH3ERX,11,"West Hollywood, CA, United States",3900.0,2015
1067,39.15187,-76.634516,95,USD,1PWCVV3TZX,1,"Baltimore, MD, United States",3226.46136364,2016
1068,46.2977,16.344015,16,HRK,1S1X983XMH,12,"Varazdin, Croatia",4200.0,2015
1069,30.191369,-98.09499,226,USD,12KCYY3C4H,1,"Austin, TX, United States",2856.28055556,2016
1070,-1.30217,36.768846,102,KES,2771P045SQ,12,"Nairobi, Kenya",28597.0,2015
1071,46.80969,-71.225329,88,CAD,1RYHAP3XHJ,1,"Quebec City, Canada",2811.64814815,2016
1072,53.069756,8.823655,35,EUR,2C2AGA4C4V,11,"Bremen, Germany",2210.0,2015
1073,35.837901,50.992994,11,USD,21C8FR42CR,12,"Karaj, Iran",775.0,2015
1074,-25.443494,-49.056411,127,BRL,1N52EH3S1M,1,"Curitiba, Brazil",1675.0,2016
1075,19.973716,-102.279243,4,MXN,1Z1FFH411G,12,"Zamora de Hidalgo, Mexico",6750.0,2015
1076,35.899404,-79.024942,15,USD,SZ11R351Q,12,"Chapel Hill, NC, United States",2800.0,2015
1077,10.70708,-71.628954,7,USD,1SNA9S3Y0W,9,"Maracaibo, Venezuela",378.666666667,2015
1078,46.2977,16.344015,16,HRK,1XNS8H40BG,12,"Varazdin, Croatia",4200.0,2015
1079,32.555602,-84.902136,25,USD,212W9Q4269,12,"Columbus, GA, United States",1499.66666667,2015
1080,32.067319,34.781028,197,ILS,17RTX63E9H,1,"Tel Aviv-yafo, Israel",7480.0,2016
1081,49.806316,-97.165659,148,CAD,1EYASP3K77,1,"Winnipeg, Canada",2827.875,2016
1082,51.05786,4.482376,8,EUR,1PBPPD3TF4,12,"Mechelen, Belgium",2000.0,2015
1083,-28.080176,153.381727,75,AUD,QNXN934EY,1,"Gold Coast, Australia",3786.66666667,2016
1084,47.412771,18.915021,2,HUF,2A0ZRF48QN,10,"Érd, Hungary",118696.453406,2015
1085,41.05251,28.989059,655,TRY,234FM343FZ,1,"Istanbul, Turkey",1999.0559375,2016
1086,35.899404,-79.024942,15,USD,ZFG1Y3ATK,12,"Chapel Hill, NC, United States",2800.0,2015
1087,33.436947,-111.76579,32,USD,1C14223H9C,12,"Mesa, AZ, United States",2457.20625,2015
1088,47.511145,18.990685,426,HUF,1T8AVG3YDY,1,"Budapest, Hungary",170539.485486,2016
1089,33.930601,-84.47292,23,USD,1PR3W23TT8,12,"Marietta, GA, United States",1700.0,2015
1090,19.912735,75.350203,25,INR,224AQB42TY,12,"Aurangabad, India",19000.0,2015
1091,40.145035,-76.215697,19,USD,1W6KQY3ZM4,12,"Lancaster, PA, United States",2350.0,2015
1092,30.19485,-97.876437,226,USD,1TJZG23YQX,1,"Austin, TX, United States",2856.28055556,2016
1093,-37.687074,145.062997,422,AUD,1751VH3E0M,1,"Melbourne, Australia",4249.66107143,2016
1094,40.084947,-89.741431,28,USD,1448AF3CSE,1,"Springfield, IL, United States",2373.39375,2016
1095,-7.238452,112.734996,40,IDR,1S1FDB3XKX,1,"Surabaya, Indonesia",3926000.0,2016
1096,39.15187,-76.634516,95,USD,1SDM953XWH,1,"Baltimore, MD, United States",3226.46136364,2016
1097,53.584482,-2.393858,10,GBP,1J0D8V3NXG,10,"Bolton, United Kingdom",1498.25,2015
1098,-1.303468,36.774764,102,KES,1AHJB13G8J,12,"Nairobi, Kenya",28597.0,2015
1099,59.062633,15.097458,14,SEK,1SWDVV3Y6B,1,"Orebro, Sweden",17530.2,2016
1100,53.766425,-2.339251,7,GBP,1HQ28E3NM6,11,"Burnley, United Kingdom",1900.0,2015
1101,-6.26634,106.924772,8,IDR,1JAQPV3P8V,11,"Bekasi, Indonesia",5977500.0,2015
1102,44.868615,-123.030888,31,USD,2A1BRN48RQ,1,"Salem, OR, United States",2000.0,2016
1103,5.321419,-4.129096,17,XOF,1CQG833HTS,1,"Abidjan, Ivory Coast",300000.0,2016
1104,36.101031,-79.820668,35,USD,1MCX5T3R2F,12,"Greensboro, NC, United States",3302.83333333,2015
1105,52.402488,0.26782,75,GBP,24TPBH44MZ,1,"Cambridge, United Kingdom",2016.66666667,2016
1106,28.349705,77.328463,21,INR,1VRYPH3ZD2,10,"Faridabad, India",31800.0,2015
1107,-12.95156,-38.358785,46,BRL,2C1E4H4C37,1,"Salvador, Brazil",1058.33333333,2016
1108,37.755005,-122.483435,297,USD,1PEQTY3TJF,1,"San Francisco, CA, United States",4199.18947368,2016
1109,-6.261709,106.959906,8,IDR,1RJXRX3X2G,11,"Bekasi, Indonesia",5977500.0,2015
1110,35.837901,50.992994,11,USD,1XE3DY407Y,12,"Karaj, Iran",775.0,2015
1111,38.59116,-89.909465,2,USD,1BZSXB3H8J,6,"O'Fallon, IL, United States",2000.0,2015
1112,47.075074,21.909091,33,RON,25N4SG452N,1,"Oradea, Romania",1387.5,2016
1113,46.80969,-71.225329,88,CAD,1RXJPV3XFF,1,"Quebec City, Canada",2811.64814815,2016
1114,40.7247,-73.563907,4,USD,1ZDVCY417C,9,"Hempstead, NY, United States",2690.42,2014
1115,37.804199,-122.407146,297,USD,21BDWA42C1,1,"San Francisco, CA, United States",4199.18947368,2016
1116,25.560448,-103.445483,12,MXN,1QXZ4J3WCX,12,"Torreon, Mexico",7250.0,2015
1117,52.510964,13.304994,310,EUR,NDPWM349A,1,"Berlin, Germany",1854.6,2016
1118,19.973716,-102.279243,4,MXN,25P1PR453B,12,"Zamora de Hidalgo, Mexico",6750.0,2015
1119,26.386271,-80.09658,16,USD,1ZGBG94199,12,"Boca Raton, FL, United States",4746.58333333,2015
1120,38.638548,-121.384825,113,USD,1NKB8Y3SF2,1,"Sacramento, CA, United States",2746.19857143,2016
1121,36.703315,4.043742,4,DZD,10BTTJ3B5R,9,"Tizi-ouzou, Algeria",15000.0,2015
1122,52.540658,13.417918,310,EUR,E58RN31QR,1,"Berlin, Germany",1854.6,2016
1123,36.101031,-79.820668,35,USD,1H548R3N2F,12,"Greensboro, NC, United States",3302.83333333,2015
1124,32.067319,34.781028,197,ILS,17301N3DZ4,1,"Tel Aviv-yafo, Israel",7480.0,2016
1125,-26.892182,-48.658285,8,BRL,1A4D5F3FZC,10,"Itajai, Brazil",1300.0,2015
1126,46.80969,-71.225329,88,CAD,1STMH13Y57,1,"Quebec City, Canada",2811.64814815,2016
1127,44.7443,20.420193,243,RSD,1N3W1B3RYQ,1,"Belgrade, Serbia",43918.1163311,2016
1128,40.145035,-76.215697,19,USD,1Q836G3VKT,12,"Lancaster, PA, United States",2350.0,2015
1129,32.067319,34.781028,197,ILS,1C9B5G3HHE,1,"Tel Aviv-yafo, Israel",7480.0,2016
1130,44.212298,28.623895,32,RON,1QN0CE3W40,10,"Constanta, Romania",1425.0,2015
1131,34.270802,-118.763323,9,USD,18XT4W3F0H,12,"Simi Valley, CA, United States",2200.0,2015
1132,52.530561,13.386689,310,EUR,1ZK39Y41AG,1,"Berlin, Germany",1854.6,2016
1133,28.008786,-82.352023,140,USD,24AB5Z44CQ,1,"Tampa, FL, United States",2702.20526316,2016
1134,46.883389,-71.296911,88,CAD,1RGM1G3WZ6,1,"Quebec City, Canada",2811.64814815,2016
1135,28.349705,77.328463,21,INR,1TCQ7Q3YJD,10,"Faridabad, India",31800.0,2015
1136,12.999759,77.531812,578,INR,2BKSJG4B8G,1,"Bangalore, India",45535.3902344,2016
1137,-6.26634,106.924772,8,IDR,1JVED43PS0,11,"Bekasi, Indonesia",5977500.0,2015
1138,47.687376,8.751071,6,CHF,1TC5J63YJ0,10,"Schaffhausen, Switzerland",4350.0,2015
1139,30.385384,-97.755795,226,USD,17RX923E9N,1,"Austin, TX, United States",2856.28055556,2016
1140,52.402488,0.26782,75,GBP,1YGHMF40RQ,1,"Cambridge, United Kingdom",2016.66666667,2016
1141,-31.969048,115.786988,220,AUD,1AD35V3G5S,1,"Perth, Australia",4046.75,2016
1142,32.19089,-110.833431,89,USD,1A5HG13G0W,12,"Tucson, AZ, United States",2905.55555556,2015
1143,35.899404,-79.024942,15,USD,17XWGQ3EBZ,12,"Chapel Hill, NC, United States",2800.0,2015
1144,35.899404,-79.024942,15,USD,17HAK53E6A,12,"Chapel Hill, NC, United States",2800.0,2015
1145,61.113129,10.4694,10,NOK,29B0D647ZD,10,"Lillehammer, Norway",24050.0,2015
1146,28.349705,77.328463,21,INR,1X7GHQ4049,10,"Faridabad, India",31800.0,2015
1147,43.596659,-79.708893,82,CAD,1VMHFB3ZAM,1,"Mississauga, Canada",2250.11111111,2016
1148,35.899404,-79.024942,15,USD,14NB0V3D0Q,12,"Chapel Hill, NC, United States",2800.0,2015
1149,46.2977,16.344015,16,HRK,1KRHXC3QEP,12,"Varazdin, Croatia",4200.0,2015
1150,39.461124,-76.248893,2,USD,1Z0YB04110,12,"Abingdon, MD, United States",2300.0,2015
1151,53.069756,8.823655,35,EUR,1ZZTKV41HE,11,"Bremen, Germany",2210.0,2015
1152,-22.946459,-43.340806,251,BRL,2877SQ46MY,1,"Rio De Janeiro, Brazil",2127.07428571,2016
1153,32.555602,-84.902136,25,USD,22ARMM42ZF,12,"Columbus, GA, United States",1499.66666667,2015
1154,8.50405,124.736299,22,PHP,28KGFM4730,11,"Cagayan de Oro City, Philippines",10800.0,2015
1155,33.930601,-84.47292,23,USD,1PRC5Y3TTM,12,"Marietta, GA, United States",1700.0,2015
1156,45.757691,22.940111,11,RON,1Y5DVV40J8,12,"Deva, Romania",1616.66666667,2015
1157,29.57058,-81.199211,7,USD,17YAAK3EC4,12,"Palm Coast, FL, United States",2583.33333333,2015
1158,-6.221791,106.891523,220,IDR,1R8J943WR7,12,"Jakarta, Indonesia",6064285.71429,2015
1159,45.508985,-122.81166,31,USD,21MQXW42J1,12,"Beaverton, OR, United States",3042.85,2015
1160,-23.557467,-46.485291,2,BRL,2DE4JW4FCS,10,"Sao Caetano do Sul, Brazil",2390.0,2015
1161,42.363625,-71.064669,251,USD,WNC8D3686,1,"Boston, MA, United States",3503.35022625,2016
1162,34.064353,-118.375347,4,USD,18EZ2X3EPG,11,"West Hollywood, CA, United States",3900.0,2015
1163,43.599404,-79.703789,82,CAD,1C7PSF3HG6,1,"Mississauga, Canada",2250.11111111,2016
1164,43.599404,-79.703789,82,CAD,1F9EEX3KDG,1,"Mississauga, Canada",2250.11111111,2016
1165,52.510964,13.304994,310,EUR,1FE7S03KJK,1,"Berlin, Germany",1854.6,2016
1166,-1.294718,36.887131,102,KES,29553Z47QD,12,"Nairobi, Kenya",28597.0,2015
1167,49.184671,16.590938,112,CZK,R33J734GW,1,"Brno, Czech Republic",22650.875,2016
1168,34.270802,-118.763323,9,USD,19GEGY3FGD,12,"Simi Valley, CA, United States",2200.0,2015
1169,51.881714,0.851165,18,GBP,21TM8F42NS,1,"Colchester, United Kingdom",1189.16666667,2016
1170,34.270802,-118.763323,9,USD,1E57V43JV0,12,"Simi Valley, CA, United States",2200.0,2015
1171,61.485375,21.796887,9,EUR,1HTEXY3NQW,11,"Pori, Finland",3000.0,2015
1172,47.412771,18.915021,2,HUF,236CYD43HQ,10,"Érd, Hungary",118696.453406,2015
1173,-37.687074,145.062997,422,AUD,192BZR3F5W,1,"Melbourne, Australia",4249.66107143,2016
1174,55.750309,24.34544,10,EUR,2APFQW49QG,7,"Panevezys, Lithuania",442.704711601,2015
1175,-37.687074,145.062997,422,AUD,1759R43E0S,1,"Melbourne, Australia",4249.66107143,2016
1176,47.649422,23.553423,11,RON,1XGTM34098,10,"Baia Mare, Romania",1466.90173452,2015
1177,-23.970511,-46.334904,19,BRL,28QRQ9478J,12,"Santos, Brazil",2250.0,2015
1178,46.80969,-71.225329,88,CAD,21M9PK42HR,1,"Quebec City, Canada",2811.64814815,2016
1179,46.2977,16.344015,16,HRK,1M33ST3QPC,12,"Varazdin, Croatia",4200.0,2015
1180,52.402488,0.26782,75,GBP,1SYNNW3Y8Q,1,"Cambridge, United Kingdom",2016.66666667,2016
1181,53.069756,8.823655,35,EUR,1ZZTHK41H9,11,"Bremen, Germany",2210.0,2015
1182,44.429451,26.011088,451,RON,1RWPWH3XE8,1,"Bucharest, Romania",2141.06965436,2016
1183,12.973725,80.127679,4,INR,2C4AFQ4CAH,12,"Madras, India",23500.0,2015
1184,33.503453,-102.023505,29,USD,18T1D83EXM,12,"Lubbock, TX, United States",2217.475,2015
1185,-6.216204,106.963525,8,IDR,1SVM0G3Y5S,11,"Bekasi, Indonesia",5977500.0,2015
1186,44.408788,8.933717,57,EUR,FQ7F031WP,12,"Genoa, Italy",1679.375,2015
1187,28.349705,77.328463,21,INR,1VRNE83ZCV,10,"Faridabad, India",31800.0,2015
1188,12.998183,77.642797,578,INR,2CCY734D2M,1,"Bangalore, India",45535.3902344,2016
1189,-7.238452,112.734996,40,IDR,1GBFWQ3M88,1,"Surabaya, Indonesia",3926000.0,2016
1190,32.067319,34.781028,197,ILS,1BFXFM3GYB,1,"Tel Aviv-yafo, Israel",7480.0,2016
1191,-25.443494,-49.056411,127,BRL,1NS9VC3SQ1,1,"Curitiba, Brazil",1675.0,2016
1192,-1.303468,36.774764,102,KES,1278773C0G,12,"Nairobi, Kenya",28597.0,2015
1193,-7.255091,112.71331,40,IDR,233G8443F5,1,"Surabaya, Indonesia",3926000.0,2016
1194,-6.41384,106.859687,4,IDR,23AJX143QC,12,"Depok, Indonesia",3000000.0,2015
